$GPRMC,094237.000,A,3205.02246,N,03448.10703,E,0.1,0.0,060215,,A*40
$GNGNS,094237.000,3205.02246,N,03448.10703,E,AN,07,1.2,0286.2,17.1,,*59
$GNGSA,A,3,09,11,03,01,04,20,16,,,,,,2.0,1.2,1.6*20
$GNGSA,A,3,,,,,,,,,,,,,2.0,1.2,1.6*2A
$GNGSA,A,3,,,,,,,,,,,,,2.0,1.2,1.6*2A
$GPGSV,4,1,14,01,54,190,24,03,68,014,49,04,28,167,30,06,09,322,38*78
$GPGSV,4,2,14,07,10,203,,08,44,058,,09,33,265,46,11,27,188,35*70
$GPGSV,4,3,14,16,08,123,36,17,11,276,38,20,21,309,28,23,60,293,35*77
$GPGSV,4,4,14,31,21,041,30,39,51,198,33,,,,,,,,*75
$GLGSV,3,1,10,66,08,089,27,82,18,221,31,76,07,025,,84,08,330,*6F
$GLGSV,3,2,10,83,29,281,,67,44,046,,68,38,330,,78,44,149,26*6F
$GLGSV,3,3,10,77,48,063,,79,06,183,,,,,,,,,*6F
$GPGLL,3205.02246,N,03448.10703,E,094237.000,A,A*5A
$PSTMTS,1,09,148229190.73,-42018.41,1,46,88472,1,24499511.08,-6071460.34,8275350.36,-812.43,720.64,2929.65,-23520.38,13.75,0,0.00,0.00,0,0,0,0,*10
$PSTMTS,1,11,149011354.38,-47345.38,1,35,91083,1,22344501.10,12269578.80,-8238812.81,-1060.66,185.22,-2763.17,-166688.16,16.06,0,0.00,0.00,0,0,0,0,*0E
$PSTMTS,1,23,146732163.93,-43303.30,1,35,73363,0,0.00,0.00,0.00,0.00,0.00,0.00,0.00,0.00,0,0.00,0.00,0,0,0,0,*0A
$PSTMTS,1,03,146105994.84,-43395.62,1,49,92059,1,13343200.35,11554759.31,19838755.42,-247.08,2510.53,-1300.67,58070.13,8.59,0,0.00,0.00,0,0,0,0,*38
$PSTMTS,1,01,146850599.56,-46326.52,1,24,91513,1,22943512.65,13410596.80,1996034.78,71.85,360.84,-3154.27,-2799.87,9.84,0,0.00,0.00,0,0,0,0,*39
$PSTMTS,1,68,5474257.92,-46935.11,1,27,43977,0,0.00,0.00,0.00,0.00,0.00,0.00,0.00,0.00,0,0.00,0.00,0,0,0,0,*01
$PSTMTS,1,04,148833795.26,-47523.33,1,30,90097,1,18042572.44,18160537.01,-7890641.11,-966.85,-258.26,-2895.83,-2028.68,16.06,0,0.00,0.00,0,0,0,0,*10
$PSTMTS,1,20,5055428.11,-41099.78,0,28,91577,1,14333934.05,-10907043.06,19338572.38,211.37,2502.73,1252.36,85967.47,17.79,0,0.00,0.00,0,0,0,0,*29
$PSTMTS,1,32,147793941.84,-45666.84,1,48,89928,0,0.00,0.00,0.00,0.00,0.00,0.00,0.00,0.00,0,0.00,0.00,0,0,0,0,*0B
$PSTMTS,1,17,150254590.05,-45133.17,1,38,40028,0,0.00,0.00,0.00,0.00,0.00,0.00,0.00,0.00,0,0.00,0.00,0,0,0,0,*0B
$PSTMTS,1,31,149214626.16,-47095.18,1,30,88722,0,0.00,0.00,0.00,0.00,0.00,0.00,0.00,0.00,0,0.00,0.00,0,0,0,0,*0E
$PSTMTS,1,69,4580566.43,-48437.39,1,31,77662,0,0.00,0.00,0.00,0.00,0.00,0.00,0.00,0.00,0,0.00,0.00,0,0,0,0,*02
$PSTMTS,1,79,2390696.74,-41495.02,1,26,8323,0,0.00,0.00,0.00,0.00,0.00,0.00,0.00,0.00,0,0.00,0.00,0,0,0,0,*3D
$PSTMTS,1,06,150358819.96,-40753.53,1,38,43508,0,0.00,0.00,0.00,0.00,0.00,0.00,0.00,0.00,0,0.00,0.00,0,0,0,0,*01
$PSTMTS,1,16,150358476.46,-41450.22,1,36,88633,1,1232388.46,25583748.11,-6297663.04,-300.88,768.62,3128.49,-47574.27,33.11,0,0.00,0.00,0,0,0,0,*16
$GPRMC,094238.000,A,3205.02156,N,03448.10482,E,0.0,0.0,060215,,A*46
$GNGNS,094238.000,3205.02156,N,03448.10482,E,AN,07,1.2,0285.6,17.1,,*59
$GNGSA,A,3,09,11,03,01,04,20,16,,,,,,2.0,1.2,1.6*20
$GNGSA,A,3,,,,,,,,,,,,,2.0,1.2,1.6*2A
$GNGSA,A,3,,,,,,,,,,,,,2.0,1.2,1.6*2A
$GPGSV,4,1,14,01,54,190,22,03,68,014,49,04,28,167,31,06,09,322,38*7F
$GPGSV,4,2,14,07,10,203,,08,44,058,,09,33,265,45,11,27,188,37*71
$GPGSV,4,3,14,16,08,123,36,17,11,276,38,20,21,309,29,23,60,293,35*76
$GPGSV,4,4,14,31,21,041,31,39,51,198,32,,,,,,,,*75
$GLGSV,3,1,10,66,08,089,27,82,18,221,31,76,07,025,,84,08,330,*6F
$GLGSV,3,2,10,83,29,281,,67,44,046,,68,38,330,,78,44,149,27*6E
$GLGSV,3,3,10,77,48,063,,79,06,183,,,,,,,,,*6F
$GPGLL,3205.02156,N,03448.10482,E,094238.000,A,A*5D
$PSTMTS,1,09,28619986.17,-42016.48,1,45,89472,1,24498699.35,-6070740.33,8278276.92,-812.71,720.86,2929.48,-23520.38,13.75,0,0.00,0.00,0,0,0,0,*27
$PSTMTS,1,11,29403164.55,-47343.02,1,37,92082,1,22343441.37,12269763.82,-8241573.05,-1060.98,185.18,-2763.00,-166688.16,16.06,0,0.00,0.00,0,0,0,0,*30
$PSTMTS,1,23,27123206.39,-43301.21,1,35,74363,0,0.00,0.00,0.00,0.00,0.00,0.00,0.00,0.00,0,0.00,0.00,0,0,0,0,*3F
$PSTMTS,1,03,26497053.63,-43393.84,1,49,93059,1,13342953.61,11557267.19,19837455.87,-246.93,2510.38,-1301.10,58070.13,8.59,0,0.00,0.00,0,0,0,0,*03
$PSTMTS,1,01,27242212.25,-46327.87,1,22,92513,1,22943584.27,13410957.16,1992883.73,71.54,360.62,-3154.31,-2799.87,9.84,0,0.00,0.00,0,0,0,0,*05
$PSTMTS,1,68,125699814.77,-46933.30,1,27,44977,0,0.00,0.00,0.00,0.00,0.00,0.00,0.00,0.00,0,0.00,0.00,0,0,0,0,*07
$PSTMTS,1,04,29225635.65,-47520.96,1,31,91097,1,18041606.42,18160278.96,-7893533.88,-967.17,-258.40,-2895.67,-2028.68,16.06,0,0.00,0.00,0,0,0,0,*29
$PSTMTS,1,20,5363033.88,-41097.77,0,29,92577,1,14334145.29,-10904542.83,19339823.25,211.50,2502.87,1251.94,85967.47,17.79,0,0.00,0.00,0,0,0,0,*2A
$PSTMTS,1,32,28185432.65,-45664.85,1,48,90927,0,0.00,0.00,0.00,0.00,0.00,0.00,0.00,0.00,0,0.00,0.00,0,0,0,0,*30
$PSTMTS,1,17,30645966.87,-45131.39,1,38,41028,0,0.00,0.00,0.00,0.00,0.00,0.00,0.00,0.00,0,0.00,0.00,0,0,0,0,*38
$PSTMTS,1,31,29606387.10,-47093.26,1,31,89722,0,0.00,0.00,0.00,0.00,0.00,0.00,0.00,0.00,0,0.00,0.00,0,0,0,0,*3D
$PSTMTS,1,69,124806393.57,-48435.52,1,31,78662,0,0.00,0.00,0.00,0.00,0.00,0.00,0.00,0.00,0,0.00,0.00,0,0,0,0,*0B
$PSTMTS,1,79,122615229.21,-41494.18,1,27,9322,0,0.00,0.00,0.00,0.00,0.00,0.00,0.00,0.00,0,0.00,0.00,0,0,0,0,*3D
$PSTMTS,1,06,30749372.87,-40751.55,1,38,44508,0,0.00,0.00,0.00,0.00,0.00,0.00,0.00,0.00,0,0.00,0.00,0,0,0,0,*37
$PSTMTS,1,16,30749142.38,-41448.10,1,36,89633,1,1232087.94,25584515.75,-6294537.70,-300.79,768.24,3128.62,-47574.27,33.11,0,0.00,0.00,0,0,0,0,*2C
$GPRMC,094239.000,A,3205.02083,N,03448.10357,E,1.0,94.3,060215,,A*7E
$GNGNS,094239.000,3205.02083,N,03448.10357,E,AN,07,1.2,0284.8,17.1,,*51
$GNGSA,A,3,09,11,03,01,04,20,16,,,,,,2.0,1.2,1.6*20
$GNGSA,A,3,,,,,,,,,,,,,2.0,1.2,1.6*2A
$GNGSA,A,3,,,,,,,,,,,,,2.0,1.2,1.6*2A
$GPGSV,4,1,14,01,54,190,32,03,68,014,49,04,28,167,33,06,09,322,34*70
$GPGSV,4,2,14,07,10,203,,08,44,058,,09,33,265,45,11,27,188,38*7E
$GPGSV,4,3,14,16,08,123,36,17,11,276,37,20,21,309,33,23,60,293,34*73
$GPGSV,4,4,14,31,21,041,32,39,51,198,32,,,,,,,,*76
$GLGSV,3,1,10,66,08,089,26,82,18,221,32,76,07,025,,84,08,330,*6D
$GLGSV,3,2,10,83,29,281,,67,44,046,,68,38,330,,78,44,149,27*6E
$GLGSV,3,3,10,77,48,063,,79,06,183,,,,,,,,,*6F
$GPGLL,3205.02083,N,03448.10357,E,094239.000,A,A*5A
$PSTMTS,1,09,88586476.72,-42018.71,1,45,90472,1,24497886.52,-6070019.37,8281206.23,-813.00,721.08,2929.30,-23520.38,13.75,0,0.00,0.00,0,0,0,0,*20
$PSTMTS,1,11,89370662.56,-47342.42,1,38,93082,1,22342380.26,12269948.98,-8244335.89,-1061.30,185.15,-2762.82,-166688.16,16.06,0,0.00,0.00,0,0,0,0,*37
$PSTMTS,1,23,87089938.01,-43300.13,1,34,75363,0,0.00,0.00,0.00,0.00,0.00,0.00,0.00,0.00,0,0.00,0.00,0,0,0,0,*39
$PSTMTS,1,03,86463800.92,-43393.57,1,49,94059,1,13342706.78,11559777.43,19836154.60,-246.78,2510.23,-1301.52,58070.13,8.59,0,0.00,0.00,0,0,0,0,*0D
$PSTMTS,1,01,3267614.68,-46322.98,0,32,93512,1,22943655.65,13411317.65,1989729.48,71.23,360.40,-3154.35,-2799.87,9.84,0,0.00,0.00,0,0,0,0,*3F
$PSTMTS,1,68,5791609.95,-46931.48,1,26,45977,0,0.00,0.00,0.00,0.00,0.00,0.00,0.00,0.00,0,0.00,0.00,0,0,0,0,*0E
$PSTMTS,1,04,89193169.15,-47521.04,1,33,92097,1,18040639.12,18160020.50,-7896429.39,-967.49,-258.53,-2895.50,-2028.68,16.06,0,0.00,0.00,0,0,0,0,*2A
$PSTMTS,1,20,5370838.10,-41096.60,0,33,93576,1,14334356.87,-10902039.95,19341074.95,211.63,2503.02,1251.53,85967.47,17.79,0,0.00,0.00,0,0,0,0,*23
$PSTMTS,1,32,88152614.90,-45662.70,1,48,91927,0,0.00,0.00,0.00,0.00,0.00,0.00,0.00,0.00,0,0.00,0.00,0,0,0,0,*31
$PSTMTS,1,17,90613043.42,-45134.46,1,37,42028,0,0.00,0.00,0.00,0.00,0.00,0.00,0.00,0.00,0,0.00,0.00,0,0,0,0,*37
$PSTMTS,1,31,89573835.09,-47092.13,1,32,90721,0,0.00,0.00,0.00,0.00,0.00,0.00,0.00,0.00,0,0.00,0.00,0,0,0,0,*33
$PSTMTS,1,69,4898512.66,-48436.70,1,32,79662,0,0.00,0.00,0.00,0.00,0.00,0.00,0.00,0.00,0,0.00,0.00,0,0,0,0,*03
$PSTMTS,1,79,2706010.28,-41494.06,1,27,10322,0,0.00,0.00,0.00,0.00,0.00,0.00,0.00,0.00,0,0.00,0.00,0,0,0,0,*0B
$PSTMTS,1,06,90715613.66,-40751.88,1,34,45508,0,0.00,0.00,0.00,0.00,0.00,0.00,0.00,0.00,0,0.00,0.00,0,0,0,0,*34
$PSTMTS,1,16,90715501.75,-41446.32,1,36,90633,1,1231787.21,25585283.79,-6291409.10,-300.70,767.87,3128.76,-47574.27,33.11,0,0.00,0.00,0,0,0,0,*29
$GPRMC,094240.000,A,3205.01986,N,03448.10321,E,1.3,75.9,060215,,A*78
$GNGNS,094240.000,3205.01986,N,03448.10321,E,AN,07,1.2,0283.5,17.1,,*5B
$GNGSA,A,3,09,11,03,01,04,20,16,,,,,,2.0,1.2,1.6*20
$GNGSA,A,3,,,,,,,,,,,,,2.0,1.2,1.6*2A
$GNGSA,A,3,,,,,,,,,,,,,2.0,1.2,1.6*2A
$GPGSV,4,1,14,01,54,190,35,03,68,014,49,04,28,167,33,06,09,322,30*73
$GPGSV,4,2,14,07,10,203,,08,44,058,,09,33,265,45,11,27,188,38*7E
$GPGSV,4,3,14,16,08,123,37,17,11,276,37,20,21,309,33,23,60,293,33*75
$GPGSV,4,4,14,31,21,041,31,39,51,198,29,,,,,,,,*7F
$GLGSV,3,1,10,66,08,089,26,82,18,221,,76,07,025,,84,08,330,*6C
$GLGSV,3,2,10,83,29,281,,67,44,046,,68,38,330,,78,44,149,26*6F
$GLGSV,3,3,10,77,48,063,,79,06,183,,,,,,,,,*6F
$GPGLL,3205.01986,N,03448.10321,E,094240.000,A,A*5A
$PSTMTS,1,09,148552968.57,-42020.97,1,45,91472,1,24497073.41,-6069298.21,8284135.35,-813.28,721.29,2929.12,-23520.38,13.75,0,0.00,0.00,0,0,0,0,*1F
$PSTMTS,1,11,149338150.92,-47345.40,1,38,94082,1,22341318.83,12270134.12,-8247098.54,-1061.61,185.12,-2762.65,-166688.16,16.06,0,0.00,0.00,0,0,0,0,*03
$PSTMTS,1,23,3156283.99,-43302.79,0,33,76363,0,0.00,0.00,0.00,0.00,0.00,0.00,0.00,0.00,0,0.00,0.00,0,0,0,0,*07
$PSTMTS,1,03,146430549.21,-43394.65,1,49,95059,1,13342460.10,11562287.51,19834852.91,-246.62,2510.08,-1301.94,58070.13,8.59,0,0.00,0.00,0,0,0,0,*3E
$PSTMTS,1,01,3276423.56,-46323.08,0,35,94512,1,22943726.72,13411677.93,1986575.20,70.92,360.18,-3154.39,-2799.87,9.84,0,0.00,0.00,0,0,0,0,*35
$PSTMTS,1,68,125717374.97,-46932.73,1,26,46977,0,0.00,0.00,0.00,0.00,0.00,0.00,0.00,0.00,0,0.00,0.00,0,0,0,0,*06
$PSTMTS,1,04,149160689.09,-47522.82,1,33,93097,1,18039671.50,18159761.91,-7899324.72,-967.80,-258.67,-2895.34,-2028.68,16.06,0,0.00,0.00,0,0,0,0,*18
$PSTMTS,1,20,5378640.05,-41098.70,0,33,94576,1,14334568.57,-10899536.94,19342326.23,211.77,2503.17,1251.11,85967.47,17.79,0,0.00,0.00,0,0,0,0,*25
$PSTMTS,1,32,148119796.53,-45663.32,1,48,92927,0,0.00,0.00,0.00,0.00,0.00,0.00,0.00,0.00,0,0.00,0.00,0,0,0,0,*03
$PSTMTS,1,17,150580127.28,-45136.54,1,37,43028,0,0.00,0.00,0.00,0.00,0.00,0.00,0.00,0.00,0,0.00,0.00,0,0,0,0,*0C
$PSTMTS,1,31,5640913.90,-47095.27,0,31,91721,0,0.00,0.00,0.00,0.00,0.00,0.00,0.00,0.00,0,0.00,0.00,0,0,0,0,*02
$PSTMTS,1,79,122630756.24,-41496.56,1,26,11322,0,0.00,0.00,0.00,0.00,0.00,0.00,0.00,0.00,0,0.00,0.00,0,0,0,0,*02
$PSTMTS,1,06,785635.06,-40754.99,0,30,46507,0,0.00,0.00,0.00,0.00,0.00,0.00,0.00,0.00,0,0.00,0.00,0,0,0,0,*3A
$PSTMTS,1,16,150681887.18,-41447.64,1,37,91632,1,1231486.57,25586051.45,-6288280.36,-300.61,767.49,3128.90,-47574.27,33.11,0,0.00,0.00,0,0,0,0,*10
$GPRMC,094241.000,A,3205.01918,N,03448.10379,E,1.3,94.4,060215,,A*71
$GNGNS,094241.000,3205.01918,N,03448.10379,E,AN,07,1.2,0281.7,17.1,,*50
$GNGSA,A,3,09,11,03,01,04,20,16,,,,,,2.0,1.2,1.6*20
$GNGSA,A,3,,,,,,,,,,,,,2.0,1.2,1.6*2A
$GNGSA,A,3,,,,,,,,,,,,,2.0,1.2,1.6*2A
$GPGSV,4,1,14,01,54,190,36,03,68,014,48,04,28,167,33,06,09,322,30*71
$GPGSV,4,2,14,07,10,203,,08,44,058,,09,33,265,45,11,27,188,40*71
$GPGSV,4,3,14,16,08,123,37,17,11,276,37,20,21,309,35,23,60,293,31*71
$GPGSV,4,4,14,31,21,041,30,39,51,198,30,,,,,,,,*76
$GLGSV,3,1,10,66,08,089,25,82,18,221,,76,07,025,,84,08,330,*6F
$GLGSV,3,2,10,83,29,281,,67,44,046,,68,38,330,,78,44,149,26*6F
$GLGSV,3,3,10,77,48,063,,79,06,183,,,,,,,,,*6F
$GPGLL,3205.01918,N,03448.10379,E,094241.000,A,A*51
$PSTMTS,1,09,28344199.63,-42023.71,1,45,92472,1,24496259.20,-6068576.10,8287067.23,-813.57,721.51,2928.94,-23520.38,13.75,0,0.00,0.00,0,0,0,0,*22
$PSTMTS,1,11,29130396.25,-47346.66,1,40,95083,1,22340256.03,12270319.40,-8249863.79,-1061.93,185.08,-2762.48,-166688.16,16.06,0,0.00,0.00,0,0,0,0,*3E
$PSTMTS,1,23,2864750.64,-43304.18,0,31,77363,0,0.00,0.00,0.00,0.00,0.00,0.00,0.00,0.00,0,0.00,0.00,0,0,0,0,*05
$PSTMTS,1,03,26222037.71,-43397.27,1,48,96059,1,13342213.33,11564799.96,19833549.49,-246.47,2509.93,-1302.36,58070.13,8.59,0,0.00,0.00,0,0,0,0,*05
$PSTMTS,1,01,2985451.58,-46324.94,0,36,95513,1,22943797.56,13412038.34,1983417.72,70.61,359.95,-3154.44,-2799.87,9.84,0,0.00,0.00,0,0,0,0,*38
$PSTMTS,1,68,5509398.70,-46930.70,1,25,47977,0,0.00,0.00,0.00,0.00,0.00,0.00,0.00,0.00,0,0.00,0.00,0,0,0,0,*00
$PSTMTS,1,04,28952957.85,-47524.47,1,33,94097,1,18038702.60,18159502.93,-7902222.79,-968.12,-258.81,-2895.17,-2028.68,16.06,0,0.00,0.00,0,0,0,0,*27
$PSTMTS,1,20,5086664.35,-41101.53,0,35,95577,1,14334780.63,-10897031.26,19343578.35,211.90,2503.32,1250.69,85967.47,17.79,0,0.00,0.00,0,0,0,0,*29
$PSTMTS,1,32,27911718.74,-45664.92,1,48,93928,0,0.00,0.00,0.00,0.00,0.00,0.00,0.00,0.00,0,0.00,0.00,0,0,0,0,*3B
$PSTMTS,1,17,30371948.64,-45139.25,1,37,44028,0,0.00,0.00,0.00,0.00,0.00,0.00,0.00,0.00,0,0.00,0.00,0,0,0,0,*34
$PSTMTS,1,31,5350099.99,-47096.46,0,30,92722,0,0.00,0.00,0.00,0.00,0.00,0.00,0.00,0.00,0,0.00,0.00,0,0,0,0,*01
$PSTMTS,1,79,2421753.79,-41497.39,1,26,12323,0,0.00,0.00,0.00,0.00,0.00,0.00,0.00,0.00,0,0.00,0.00,0,0,0,0,*04
$PSTMTS,1,06,493610.25,-40756.80,0,30,47508,0,0.00,0.00,0.00,0.00,0.00,0.00,0.00,0.00,0,0.00,0.00,0,0,0,0,*3C
$PSTMTS,1,16,30473004.82,-41447.84,1,37,92633,1,1231185.72,25586819.50,-6285148.35,-300.51,767.12,3129.04,-47574.27,33.11,0,0.00,0.00,0,0,0,0,*2D
$GPRMC,094242.000,A,3205.01878,N,03448.09686,E,1.9,84.7,060215,,A*70
$GNGNS,094242.000,3205.01878,N,03448.09686,E,AN,07,1.2,0282.7,17.1,,*5A
$GNGSA,A,3,09,11,03,01,04,20,16,,,,,,2.0,1.2,1.6*20
$GNGSA,A,3,,,,,,,,,,,,,2.0,1.2,1.6*2A
$GNGSA,A,3,,,,,,,,,,,,,2.0,1.2,1.6*2A
$GPGSV,4,1,14,01,54,190,37,03,68,014,48,04,28,167,33,06,09,322,30*70
$GPGSV,4,2,14,07,10,203,,08,44,058,,09,33,265,45,11,27,188,39*7F
$GPGSV,4,3,14,16,08,123,37,17,11,276,37,20,21,309,36,23,60,293,31*72
$GPGSV,4,4,14,31,21,041,29,39,51,198,32,,,,,,,,*7C
$GLGSV,3,1,10,66,08,089,25,82,18,221,32,76,07,025,,84,08,330,*6E
$GLGSV,3,2,10,83,29,281,,67,44,046,,68,38,330,,78,44,149,25*6C
$GLGSV,3,3,10,77,48,063,,79,06,183,,,,,,,,,*6F
$GPGLL,3205.01878,N,03448.09686,E,094242.000,A,A*58
$PSTMTS,1,09,88310690.56,-42024.17,1,45,93472,1,24495445.52,-6067854.50,8289996.01,-813.85,721.72,2928.77,-23520.38,13.75,0,0.00,0.00,0,0,0,0,*26
$PSTMTS,1,11,89097897.58,-47346.79,1,39,96082,1,22339193.97,12270504.47,-8252626.11,-1062.25,185.05,-2762.31,-166688.16,16.06,0,0.00,0.00,0,0,0,0,*38
$PSTMTS,1,23,2872994.41,-43304.36,0,31,78363,0,0.00,0.00,0.00,0.00,0.00,0.00,0.00,0.00,0,0.00,0.00,0,0,0,0,*00
$PSTMTS,1,03,86188785.39,-43396.77,1,48,97059,1,13341966.95,11567309.75,19832246.95,-246.32,2509.78,-1302.78,58070.13,8.59,0,0.00,0.00,0,0,0,0,*0B
$PSTMTS,1,01,2994262.72,-46326.08,0,37,96513,1,22943868.02,13412398.18,1980263.35,70.30,359.73,-3154.48,-2799.87,9.84,0,0.00,0.00,0,0,0,0,*3F
$PSTMTS,1,68,125435170.47,-46934.39,1,25,48977,0,0.00,0.00,0.00,0.00,0.00,0.00,0.00,0.00,0,0.00,0.00,0,0,0,0,*0B
$PSTMTS,1,04,88920485.95,-47525.03,1,33,95097,1,18037734.35,18159244.06,-7905117.81,-968.43,-258.95,-2895.01,-2028.68,16.06,0,0.00,0.00,0,0,0,0,*2B
$PSTMTS,1,20,5094473.67,-41102.81,0,36,96577,1,14334992.60,-10894527.94,19344828.80,212.03,2503.46,1250.28,85967.47,17.79,0,0.00,0.00,0,0,0,0,*2D
$PSTMTS,1,32,87878898.72,-45664.24,1,47,94927,0,0.00,0.00,0.00,0.00,0.00,0.00,0.00,0.00,0,0.00,0.00,0,0,0,0,*34
$PSTMTS,1,17,90339029.21,-45140.01,1,37,45028,0,0.00,0.00,0.00,0.00,0.00,0.00,0.00,0.00,0,0.00,0.00,0,0,0,0,*34
$PSTMTS,1,31,5359063.59,-47096.58,0,29,93722,0,0.00,0.00,0.00,0.00,0.00,0.00,0.00,0.00,0,0.00,0.00,0,0,0,0,*07
$PSTMTS,1,69,124542975.52,-48438.36,1,32,82662,0,0.00,0.00,0.00,0.00,0.00,0.00,0.00,0.00,0,0.00,0.00,0,0,0,0,*08
$PSTMTS,1,79,122346512.00,-41499.49,1,25,13322,0,0.00,0.00,0.00,0.00,0.00,0.00,0.00,0.00,0,0.00,0.00,0,0,0,0,*02
$PSTMTS,1,06,501369.36,-40757.11,0,30,48508,0,0.00,0.00,0.00,0.00,0.00,0.00,0.00,0.00,0,0.00,0.00,0,0,0,0,*39
$PSTMTS,1,16,90439388.36,-41447.30,1,37,93633,1,1230885.27,25587586.41,-6282019.33,-300.42,766.74,3129.17,-47574.27,33.11,0,0.00,0.00,0,0,0,0,*28
$GPRMC,094243.000,A,3205.01872,N,03448.09367,E,1.9,76.7,060215,,A*7C
$GNGNS,094243.000,3205.01872,N,03448.09367,E,AN,07,1.2,0282.0,17.1,,*5C
$GNGSA,A,3,09,11,03,01,04,20,16,,,,,,2.0,1.2,1.6*20
$GNGSA,A,3,,,,,,,,,,,,,2.0,1.2,1.6*2A
$GNGSA,A,3,,,,,,,,,,,,,2.0,1.2,1.6*2A
$GPGSV,4,1,14,01,54,190,37,03,68,014,48,04,28,167,32,06,09,322,30*71
$GPGSV,4,2,14,07,10,203,,08,44,058,,09,33,265,45,11,27,188,39*7F
$GPGSV,4,3,14,16,08,123,36,17,11,276,37,20,21,309,36,23,60,293,31*73
$GPGSV,4,4,14,31,21,041,28,39,51,198,32,,,,,,,,*7D
$GLGSV,3,1,10,66,08,089,25,82,18,221,31,76,07,025,,84,08,330,*6D
$GLGSV,3,2,10,83,29,281,,67,44,046,,68,38,330,,78,44,149,25*6C
$GLGSV,3,3,10,77,48,063,,79,06,183,,,,,,,,,*6F
$GPGLL,3205.01872,N,03448.09367,E,094243.000,A,A*59
$PSTMTS,1,09,148576957.17,-42022.48,1,45,94472,1,24494632.37,-6067133.40,8292921.67,-814.13,721.94,2928.59,-23520.38,13.75,0,0.00,0.00,0,0,0,0,*14
$PSTMTS,1,11,149365181.68,-47344.70,1,39,97082,1,22338132.65,12270689.32,-8255385.49,-1062.57,185.02,-2762.13,-166688.16,16.06,0,0.00,0.00,0,0,0,0,*0B
$PSTMTS,1,23,3181024.71,-43301.37,0,31,79363,0,0.00,0.00,0.00,0.00,0.00,0.00,0.00,0.00,0,0.00,0.00,0,0,0,0,*00
$PSTMTS,1,03,146455320.31,-43395.05,1,48,98059,1,13341720.98,11569816.87,19830945.29,-246.16,2509.63,-1303.21,58070.13,8.59,0,0.00,0.00,0,0,0,0,*32
$PSTMTS,1,01,3302859.39,-46324.04,0,37,97512,1,22943938.10,13412757.43,1977112.10,69.99,359.51,-3154.52,-2799.87,9.84,0,0.00,0.00,0,0,0,0,*3C
$PSTMTS,1,68,5826752.32,-46935.57,1,25,49977,0,0.00,0.00,0.00,0.00,0.00,0.00,0.00,0.00,0,0.00,0.00,0,0,0,0,*0A
$PSTMTS,1,04,149187799.13,-47521.79,1,32,96097,1,18036766.75,18158985.32,-7908009.76,-968.75,-259.09,-2894.84,-2028.68,16.06,0,0.00,0.00,0,0,0,0,*1D
$PSTMTS,1,20,5402065.56,-41097.00,0,36,97576,1,14335204.49,-10892026.98,19346077.58,212.16,2503.61,1249.86,85967.47,17.79,0,0.00,0.00,0,0,0,0,*2B
$PSTMTS,1,32,148145861.53,-45662.53,1,47,95927,0,0.00,0.00,0.00,0.00,0.00,0.00,0.00,0.00,0,0.00,0.00,0,0,0,0,*03
$PSTMTS,1,17,150605895.37,-45137.90,1,37,46028,0,0.00,0.00,0.00,0.00,0.00,0.00,0.00,0.00,0,0.00,0.00,0,0,0,0,*00
$PSTMTS,1,31,5667814.84,-47097.66,0,28,94721,0,0.00,0.00,0.00,0.00,0.00,0.00,0.00,0.00,0,0.00,0.00,0,0,0,0,*0E
$PSTMTS,1,69,4934855.85,-48436.22,1,31,83662,0,0.00,0.00,0.00,0.00,0.00,0.00,0.00,0.00,0,0.00,0.00,0,0,0,0,*06
$PSTMTS,1,79,2737079.92,-41498.81,1,25,14322,0,0.00,0.00,0.00,0.00,0.00,0.00,0.00,0.00,0,0.00,0.00,0,0,0,0,*02
$PSTMTS,1,06,808909.19,-40754.82,0,30,49508,0,0.00,0.00,0.00,0.00,0.00,0.00,0.00,0.00,0,0.00,0.00,0,0,0,0,*34
$PSTMTS,1,16,150705565.36,-41446.20,1,36,94633,1,1230585.21,25588352.17,-6278893.31,-300.33,766.36,3129.31,-47574.27,33.11,0,0.00,0.00,0,0,0,0,*1B
$GPRMC,094244.000,A,3205.01883,N,03448.09343,E,1.6,70.8,060215,,A*75
$GNGNS,094244.000,3205.01883,N,03448.09343,E,AN,07,1.2,0279.7,17.1,,*50
$GNGSA,A,3,09,11,03,01,04,20,16,,,,,,2.0,1.2,1.6*20
$GNGSA,A,3,,,,,,,,,,,,,2.0,1.2,1.6*2A
$GNGSA,A,3,,,,,,,,,,,,,2.0,1.2,1.6*2A
$GPGSV,4,1,14,01,54,190,36,03,68,014,48,04,28,167,32,06,09,322,29*78
$GPGSV,4,2,14,07,10,203,,08,44,058,,09,33,265,45,11,27,188,38*7E
$GPGSV,4,3,14,16,08,123,36,17,11,276,37,20,21,309,36,23,60,293,32*70
$GPGSV,4,4,14,31,21,041,28,39,51,198,26,,,,,,,,*78
$GLGSV,3,1,10,66,08,089,25,82,18,221,31,76,07,025,,84,08,330,*6D
$GLGSV,3,2,10,83,29,281,,67,44,046,,68,38,330,,78,44,149,24*6D
$GLGSV,3,3,10,77,48,063,,79,06,183,,,,,,,,,*6F
$GPGLL,3205.01883,N,03448.09343,E,094244.000,A,A*56
$PSTMTS,1,09,28667976.22,-42021.57,1,45,95472,1,24493818.12,-6066411.37,8295850.09,-814.42,722.16,2928.41,-23520.38,13.75,0,0.00,0.00,0,0,0,0,*27
$PSTMTS,1,11,29457205.27,-47343.50,1,38,98082,1,22337069.96,12270874.32,-8258147.46,-1062.88,184.98,-2761.96,-166688.16,16.06,0,0.00,0.00,0,0,0,0,*35
$PSTMTS,1,23,3189271.21,-43300.57,0,32,80363,0,0.00,0.00,0.00,0.00,0.00,0.00,0.00,0.00,0,0.00,0.00,0,0,0,0,*0D
$PSTMTS,1,03,26546597.52,-43394.45,1,48,99059,1,13341474.91,11572326.36,19829641.91,-246.01,2509.48,-1303.63,58070.13,8.59,0,0.00,0.00,0,0,0,0,*07
$PSTMTS,1,01,3311677.97,-46323.75,0,36,98512,1,22944007.93,13413116.82,1973957.64,69.68,359.29,-3154.56,-2799.87,9.84,0,0.00,0.00,0,0,0,0,*3A
$PSTMTS,1,68,125752525.10,-46933.92,1,25,50977,0,0.00,0.00,0.00,0.00,0.00,0.00,0.00,0.00,0,0.00,0.00,0,0,0,0,*00
$PSTMTS,1,04,29279853.23,-47522.21,1,32,97096,1,18035797.87,18158726.17,-7910904.44,-969.07,-259.22,-2894.68,-2028.68,16.06,0,0.00,0.00,0,0,0,0,*2F
$PSTMTS,1,20,5409882.99,-41097.96,0,36,98576,1,14335416.72,-10889523.37,19347327.20,212.29,2503.76,1249.44,85967.47,17.79,0,0.00,0.00,0,0,0,0,*2C
$PSTMTS,1,32,28237567.84,-45661.93,1,47,96927,0,0.00,0.00,0.00,0.00,0.00,0.00,0.00,0.00,0,0.00,0.00,0,0,0,0,*3F
$PSTMTS,1,17,30697501.61,-45137.82,1,37,47028,0,0.00,0.00,0.00,0.00,0.00,0.00,0.00,0.00,0,0.00,0.00,0,0,0,0,*3D
$PSTMTS,1,31,5676784.44,-47097.18,0,28,95721,0,0.00,0.00,0.00,0.00,0.00,0.00,0.00,0.00,0,0.00,0.00,0,0,0,0,*0C
$PSTMTS,1,69,124860912.22,-48436.30,1,31,84662,0,0.00,0.00,0.00,0.00,0.00,0.00,0.00,0.00,0,0.00,0.00,0,0,0,0,*0E
$PSTMTS,1,79,122661819.06,-41499.66,1,24,15322,0,0.00,0.00,0.00,0.00,0.00,0.00,0.00,0.00,0,0.00,0.00,0,0,0,0,*08
$PSTMTS,1,06,816670.37,-40754.83,0,29,50507,0,0.00,0.00,0.00,0.00,0.00,0.00,0.00,0.00,0,0.00,0.00,0,0,0,0,*38
$PSTMTS,1,16,30796473.31,-41449.40,1,36,95632,1,1230284.93,25589118.33,-6275764.02,-300.24,765.99,3129.45,-47574.27,33.11,0,0.00,0.00,0,0,0,0,*23
$GPRMC,094245.000,A,3205.01920,N,03448.09262,E,1.7,61.9,060215,,A*7E
$GNGNS,094245.000,3205.01920,N,03448.09262,E,AN,07,1.2,0277.0,17.1,,*52
$GNGSA,A,3,09,11,03,01,04,20,16,,,,,,2.0,1.2,1.6*20
$GNGSA,A,3,,,,,,,,,,,,,2.0,1.2,1.6*2A
$GNGSA,A,3,,,,,,,,,,,,,2.0,1.2,1.6*2A
$GPGSV,4,1,14,01,54,190,35,03,68,014,48,04,28,167,32,06,09,322,29*7B
$GPGSV,4,2,14,07,10,203,,08,44,058,,09,33,265,45,11,27,188,37*71
$GPGSV,4,3,14,16,08,123,34,17,11,276,37,20,21,309,37,23,60,293,31*70
$GPGSV,4,4,14,31,21,041,29,39,51,198,26,,,,,,,,*79
$GLGSV,3,1,10,66,08,089,25,82,18,221,31,76,07,025,,84,08,330,*6D
$GLGSV,3,2,10,83,29,281,,67,44,046,,68,38,330,,78,44,149,24*6D
$GLGSV,3,3,10,77,48,063,,79,06,183,,,,,,,,,*6F
$GPGLL,3205.01920,N,03448.09262,E,094245.000,A,A*5D
$PSTMTS,1,09,88334673.02,-42024.03,1,45,96472,1,24493002.77,-6065688.40,8298781.26,-814.70,722.37,2928.23,-23520.38,13.75,0,0.00,0.00,0,0,0,0,*25
$PSTMTS,1,11,89124918.61,-47346.41,1,37,99083,1,22336005.89,12271059.47,-8260912.01,-1063.20,184.95,-2761.79,-166688.16,16.06,0,0.00,0.00,0,0,0,0,*3F
$PSTMTS,1,23,2897721.04,-43302.92,0,31,81363,0,0.00,0.00,0.00,0.00,0.00,0.00,0.00,0.00,0,0.00,0.00,0,0,0,0,*04
$PSTMTS,1,03,86213562.47,-43396.92,1,48,100059,1,13341228.75,11574838.21,19828336.81,-245.86,2509.33,-1304.05,58070.13,8.59,0,0.00,0.00,0,0,0,0,*3E
$PSTMTS,1,01,3020707.37,-46326.42,0,35,99513,1,22944077.53,13413476.35,1970800.00,69.38,359.07,-3154.60,-2799.87,9.84,0,0.00,0.00,0,0,0,0,*3F
$PSTMTS,1,68,5544540.39,-46933.77,1,25,51977,0,0.00,0.00,0.00,0.00,0.00,0.00,0.00,0.00,0,0.00,0.00,0,0,0,0,*04
$PSTMTS,1,04,5005710.47,-47522.92,0,32,98097,1,18034827.70,18158466.63,-7913801.85,-969.38,-259.36,-2894.52,-2028.68,16.06,0,0.00,0.00,0,0,0,0,*16
$PSTMTS,1,20,5117908.22,-41096.77,0,37,99577,1,14335629.30,-10887017.10,19348577.65,212.42,2503.91,1249.02,85967.47,17.79,0,0.00,0.00,0,0,0,0,*20
$PSTMTS,1,32,87904963.99,-45664.63,1,46,97928,0,0.00,0.00,0.00,0.00,0.00,0.00,0.00,0.00,0,0.00,0.00,0,0,0,0,*30
$PSTMTS,1,17,90364799.95,-45140.29,1,37,48028,0,0.00,0.00,0.00,0.00,0.00,0.00,0.00,0.00,0,0.00,0.00,0,0,0,0,*38
$PSTMTS,1,31,5385955.22,-47096.31,0,29,96722,0,0.00,0.00,0.00,0.00,0.00,0.00,0.00,0.00,0,0.00,0.00,0,0,0,0,*0C
$PSTMTS,1,69,4653217.79,-48436.32,1,31,85662,0,0.00,0.00,0.00,0.00,0.00,0.00,0.00,0.00,0,0.00,0.00,0,0,0,0,*00
$PSTMTS,1,79,2452817.70,-41498.09,1,24,16323,0,0.00,0.00,0.00,0.00,0.00,0.00,0.00,0.00,0,0.00,0.00,0,0,0,0,*0C
$PSTMTS,1,06,524633.62,-40754.71,0,29,51508,0,0.00,0.00,0.00,0.00,0.00,0.00,0.00,0.00,0,0.00,0.00,0,0,0,0,*30
$PSTMTS,1,16,525336.06,-41450.23,0,34,96633,1,1229984.02,25589884.79,-6272631.63,-300.12,765.62,3129.61,-47574.26,32.82,0,0.00,0.00,0,0,0,0,*21
$GPRMC,094246.000,A,3205.01925,N,03448.09234,E,1.8,54.2,060215,,A*79
$GNGNS,094246.000,3205.01925,N,03448.09234,E,AN,07,1.2,0275.5,17.1,,*50
$GNGSA,A,3,09,11,03,01,04,20,16,,,,,,2.0,1.2,1.6*20
$GNGSA,A,3,,,,,,,,,,,,,2.0,1.2,1.6*2A
$GNGSA,A,3,,,,,,,,,,,,,2.0,1.2,1.6*2A
$GPGSV,4,1,14,01,54,190,34,03,68,014,48,04,28,167,32,06,09,322,29*7A
$GPGSV,4,2,14,07,10,203,,08,44,058,,09,33,265,45,11,27,188,36*70
$GPGSV,4,3,14,16,08,123,34,17,11,276,38,20,21,309,37,23,60,293,31*7F
$GPGSV,4,4,14,31,21,041,29,39,51,198,27,,,,,,,,*78
$GLGSV,3,1,10,66,08,089,25,82,18,221,32,76,07,025,,84,08,330,*6E
$GLGSV,3,2,10,83,29,281,,67,44,046,,68,38,330,,78,44,149,24*6D
$GLGSV,3,3,10,77,48,063,,79,06,183,,,,,,,,,*6F
$GPGLL,3205.01925,N,03448.09234,E,094246.000,A,A*58
$PSTMTS,1,09,148301161.08,-42023.15,1,45,97472,1,24492187.95,-6064965.93,8301709.32,-814.99,722.59,2928.06,-23520.38,13.75,0,0.00,0.00,0,0,0,0,*1F
$PSTMTS,1,11,5192040.87,-47345.60,0,36,100082,1,22334942.56,12271244.41,-8263673.64,-1063.52,184.92,-2761.62,-166688.16,16.06,0,0.00,0.00,0,0,0,0,*38
$PSTMTS,1,23,146806331.37,-43303.47,1,31,82363,0,0.00,0.00,0.00,0.00,0.00,0.00,0.00,0.00,0,0.00,0.00,0,0,0,0,*03
$PSTMTS,1,03,146180314.04,-43396.24,1,48,101059,1,13340982.99,11577347.40,19827032.58,-245.71,2509.18,-1304.47,58070.13,8.59,0,0.00,0.00,0,0,0,0,*02
$PSTMTS,1,01,3029523.24,-46326.52,0,34,100513,1,22944146.76,13413835.30,1967645.46,69.07,358.85,-3154.64,-2799.87,9.84,0,0.00,0.00,0,0,0,0,*03
$PSTMTS,1,68,125470314.18,-46934.46,1,25,52977,0,0.00,0.00,0.00,0.00,0.00,0.00,0.00,0.00,0,0.00,0.00,0,0,0,0,*03
$PSTMTS,1,04,5014757.82,-47524.35,0,32,99097,1,18033858.19,18158207.22,-7916696.20,-969.70,-259.50,-2894.35,-2028.68,16.06,0,0.00,0.00,0,0,0,0,*15
$PSTMTS,1,20,5125725.63,-41096.28,0,37,100577,1,14335841.80,-10884513.19,19349826.43,212.55,2504.05,1248.61,85967.47,17.79,0,0.00,0.00,0,0,0,0,*1A
$PSTMTS,1,32,147872147.38,-45663.52,1,46,98927,0,0.00,0.00,0.00,0.00,0.00,0.00,0.00,0.00,0,0.00,0.00,0,0,0,0,*0D
$PSTMTS,1,17,150331878.98,-45139.48,1,38,49028,0,0.00,0.00,0.00,0.00,0.00,0.00,0.00,0.00,0,0.00,0.00,0,0,0,0,*0F
$PSTMTS,1,31,5394914.19,-47097.52,0,29,97722,0,0.00,0.00,0.00,0.00,0.00,0.00,0.00,0.00,0,0.00,0.00,0,0,0,0,*04
$PSTMTS,1,69,124579263.13,-48436.13,1,32,86662,0,0.00,0.00,0.00,0.00,0.00,0.00,0.00,0.00,0,0.00,0.00,0,0,0,0,*04
$PSTMTS,1,79,122377561.63,-41497.62,1,24,17322,0,0.00,0.00,0.00,0.00,0.00,0.00,0.00,0.00,0,0.00,0.00,0,0,0,0,*03
$PSTMTS,1,06,532392.10,-40756.26,0,29,52508,0,0.00,0.00,0.00,0.00,0.00,0.00,0.00,0.00,0,0.00,0.00,0,0,0,0,*3F
$PSTMTS,1,16,533239.83,-41451.99,0,34,97633,1,1229683.96,25590650.20,-6269502.03,-300.03,765.25,3129.75,-47574.26,32.82,0,0.00,0.00,0,0,0,0,*2B
$GPRMC,094247.000,A,3205.01966,N,03448.09217,E,1.9,42.3,060215,,A*79
$GNGNS,094247.000,3205.01966,N,03448.09217,E,AN,07,1.2,0274.4,17.1,,*57
$GNGSA,A,3,09,11,03,01,04,20,16,,,,,,2.0,1.2,1.6*20
$GNGSA,A,3,,,,,,,,,,,,,2.0,1.2,1.6*2A
$GNGSA,A,3,,,,,,,,,,,,,2.0,1.2,1.6*2A
$GPGSV,4,1,14,01,54,190,35,03,68,014,48,04,28,167,32,06,09,322,29*7B
$GPGSV,4,2,14,07,10,203,,08,44,058,,09,33,265,46,11,27,188,35*70
$GPGSV,4,3,14,16,08,123,33,17,11,276,38,20,21,309,37,23,60,293,31*78
$GPGSV,4,4,14,31,21,041,28,39,51,198,29,,,,,,,,*77
$GLGSV,3,1,10,66,08,089,25,82,18,221,33,76,07,025,,84,08,330,*6F
$GLGSV,3,2,10,83,29,281,,67,44,046,,68,38,330,,78,44,149,*6B
$GLGSV,3,3,10,77,48,063,,79,06,183,,,,,,,,,*6F
$GPGLL,3205.01966,N,03448.09217,E,094247.000,A,A*5F
$PSTMTS,1,09,28691958.24,-42022.57,1,46,98472,1,24491373.67,-6064243.97,8304634.28,-815.27,722.81,2927.88,-23520.38,13.75,0,0.00,0.00,0,0,0,0,*26
$PSTMTS,1,11,5500838.64,-47345.23,0,35,101082,1,22333879.98,12271429.12,-8266432.33,-1063.83,184.88,-2761.44,-166688.16,16.06,0,0.00,0.00,0,0,0,0,*3C
$PSTMTS,1,23,27197372.21,-43303.68,1,31,83363,0,0.00,0.00,0.00,0.00,0.00,0.00,0.00,0.00,0,0.00,0.00,0,0,0,0,*38
$PSTMTS,1,03,26571368.68,-43395.96,1,48,102059,1,13340737.62,11579853.93,19825729.24,-245.55,2509.04,-1304.89,58070.13,8.59,0,0.00,0.00,0,0,0,0,*30
$PSTMTS,1,01,3338123.45,-46326.24,0,35,101512,1,22944215.60,13414193.66,1964494.04,68.76,358.63,-3154.68,-2799.87,9.84,0,0.00,0.00,0,0,0,0,*08
$PSTMTS,1,68,5861903.95,-46935.58,1,25,53977,0,0.00,0.00,0.00,0.00,0.00,0.00,0.00,0.00,0,0.00,0.00,0,0,0,0,*0A
$PSTMTS,1,04,5323585.52,-47523.86,0,32,100097,1,18032889.33,18157947.92,-7919587.50,-970.01,-259.64,-2894.19,-2028.68,16.06,0,0.00,0.00,0,0,0,0,*2E
$PSTMTS,1,20,5433328.75,-41095.78,0,37,101576,1,14336054.21,-10882011.64,19351073.54,212.69,2504.20,1248.19,85967.47,17.79,0,0.00,0.00,0,0,0,0,*1F
$PSTMTS,1,32,28263637.88,-45663.28,1,46,99927,0,0.00,0.00,0.00,0.00,0.00,0.00,0.00,0.00,0,0.00,0.00,0,0,0,0,*38
$PSTMTS,1,17,30723266.23,-45139.28,1,38,50028,0,0.00,0.00,0.00,0.00,0.00,0.00,0.00,0.00,0,0.00,0.00,0,0,0,0,*34
$PSTMTS,1,31,5703664.42,-47098.16,0,28,98721,0,0.00,0.00,0.00,0.00,0.00,0.00,0.00,0.00,0,0.00,0.00,0,0,0,0,*0A
$PSTMTS,1,69,4971137.85,-48436.79,1,33,87662,0,0.00,0.00,0.00,0.00,0.00,0.00,0.00,0.00,0,0.00,0.00,0,0,0,0,*02
$PSTMTS,1,06,839934.09,-40754.29,0,29,53508,0,0.00,0.00,0.00,0.00,0.00,0.00,0.00,0.00,0,0.00,0.00,0,0,0,0,*3B
$PSTMTS,1,16,840932.18,-41450.42,0,33,98633,1,1229384.28,25591414.48,-6266375.43,-299.94,764.87,3129.88,-47574.26,32.82,0,0.00,0.00,0,0,0,0,*2C
$GPRMC,094248.000,A,3205.02030,N,03448.09268,E,2.1,37.6,060215,,A*7B
$GNGNS,094248.000,3205.02030,N,03448.09268,E,AN,07,1.2,0272.9,17.1,,*52
$GNGSA,A,3,09,11,03,01,04,20,16,,,,,,2.0,1.2,1.6*20
$GNGSA,A,3,,,,,,,,,,,,,2.0,1.2,1.6*2A
$GNGSA,A,3,,,,,,,,,,,,,2.0,1.2,1.6*2A
$GPGSV,4,1,14,01,54,190,35,03,68,014,48,04,28,167,33,06,09,322,29*7A
$GPGSV,4,2,14,07,10,203,,08,44,058,,09,33,265,45,11,27,188,34*72
$GPGSV,4,3,14,16,08,123,33,17,11,276,38,20,21,309,37,23,60,293,30*79
$GPGSV,4,4,14,31,21,041,28,39,51,198,27,,,,,,,,*79
$GLGSV,3,1,10,66,08,089,25,82,18,221,32,76,07,025,,84,08,330,*6E
$GLGSV,3,2,10,83,29,281,,67,44,046,,68,38,330,,78,44,149,*6B
$GLGSV,3,3,10,77,48,063,,79,06,183,,,,,,,,,*6F
$GPGLL,3205.02030,N,03448.09268,E,094248.000,A,A*51
$PSTMTS,1,09,88658449.48,-42023.81,1,45,99472,1,24490558.28,-6063521.08,8307561.99,-815.56,723.02,2927.70,-23520.38,13.75,0,0.00,0.00,0,0,0,0,*20
$PSTMTS,1,11,5509846.56,-47347.32,0,34,102082,1,22332816.02,12271613.99,-8269193.61,-1064.15,184.85,-2761.27,-166688.16,16.06,0,0.00,0.00,0,0,0,0,*38
$PSTMTS,1,23,87164115.87,-43304.45,1,30,84362,0,0.00,0.00,0.00,0.00,0.00,0.00,0.00,0.00,0,0.00,0.00,0,0,0,0,*3E
$PSTMTS,1,03,86538116.39,-43397.02,1,48,103059,1,13340492.17,11582362.83,19824424.17,-245.40,2508.89,-1305.32,58070.13,8.59,0,0.00,0.00,0,0,0,0,*3A
$PSTMTS,1,01,3346940.63,-46328.33,0,35,102512,1,22944284.20,13414552.17,1961339.43,68.45,358.41,-3154.73,-2799.87,9.84,0,0.00,0.00,0,0,0,0,*0C
$PSTMTS,1,68,125787666.07,-46934.86,1,25,54977,0,0.00,0.00,0.00,0.00,0.00,0.00,0.00,0.00,0,0.00,0.00,0,0,0,0,*0C
$PSTMTS,1,04,5332640.73,-47523.77,0,33,101096,1,18031919.18,18157688.22,-7922481.52,-970.33,-259.78,-2894.02,-2028.68,16.06,0,0.00,0.00,0,0,0,0,*26
$PSTMTS,1,20,5441148.49,-41095.72,0,37,102576,1,14336266.97,-10879507.43,19352321.49,212.82,2504.35,1247.77,85967.47,17.79,0,0.00,0.00,0,0,0,0,*18
$PSTMTS,1,32,88230819.58,-45664.59,1,46,100927,0,0.00,0.00,0.00,0.00,0.00,0.00,0.00,0.00,0,0.00,0.00,0,0,0,0,*0B
$PSTMTS,1,17,90690355.29,-45140.50,1,38,51028,0,0.00,0.00,0.00,0.00,0.00,0.00,0.00,0.00,0,0.00,0.00,0,0,0,0,*3C
$PSTMTS,1,31,5712625.80,-47097.40,0,28,99721,0,0.00,0.00,0.00,0.00,0.00,0.00,0.00,0.00,0,0.00,0.00,0,0,0,0,*0C
$PSTMTS,1,69,124897192.65,-48437.32,1,32,88662,0,0.00,0.00,0.00,0.00,0.00,0.00,0.00,0.00,0,0.00,0.00,0,0,0,0,*09
$PSTMTS,1,06,847690.89,-40756.47,0,29,54507,0,0.00,0.00,0.00,0.00,0.00,0.00,0.00,0.00,0,0.00,0.00,0,0,0,0,*39
$PSTMTS,1,16,848820.10,-41450.29,0,33,99632,1,1229084.40,25592179.14,-6263245.57,-299.85,764.49,3130.02,-47574.26,32.82,0,0.00,0.00,0,0,0,0,*20
$GPRMC,094249.000,A,3205.02142,N,03448.09356,E,1.8,41.7,060215,,A*78
$GNGNS,094249.000,3205.02142,N,03448.09356,E,AN,07,1.2,0269.5,17.1,,*5D
$GNGSA,A,3,09,11,03,01,04,20,16,,,,,,2.0,1.2,1.6*20
$GNGSA,A,3,,,,,,,,,,,,,2.0,1.2,1.6*2A
$GNGSA,A,3,,,,,,,,,,,,,2.0,1.2,1.6*2A
$GPGSV,4,1,14,01,54,190,35,03,68,014,48,04,28,167,32,06,09,322,28*7A
$GPGSV,4,2,14,07,10,203,,08,44,058,,09,33,265,45,11,27,188,35*73
$GPGSV,4,3,14,16,08,123,32,17,11,276,38,20,21,309,38,23,60,293,31*76
$GPGSV,4,4,14,31,21,041,29,39,51,198,27,,,,,,,,*78
$GLGSV,3,1,10,66,08,089,25,82,18,221,32,76,07,025,,84,08,330,*6E
$GLGSV,3,2,10,83,29,281,,67,44,046,,68,38,330,,78,44,149,31*69
$GLGSV,3,3,10,77,48,063,,79,06,183,,,,,,,,,*6F
$GPGLL,3205.02142,N,03448.09356,E,094249.000,A,A*58
$PSTMTS,1,09,148325157.17,-42025.41,1,45,100472,1,24489741.79,-6062797.24,8310492.44,-815.84,723.24,2927.52,-23520.38,13.75,0,0.00,0.00,0,0,0,0,*2F
$PSTMTS,1,11,5219072.97,-47348.35,0,35,103082,1,22331750.67,12271799.01,-8271957.48,-1064.47,184.82,-2761.10,-166688.16,16.06,0,0.00,0.00,0,0,0,0,*3D
$PSTMTS,1,23,146831068.83,-43306.60,1,31,85363,0,0.00,0.00,0.00,0.00,0.00,0.00,0.00,0.00,0,0.00,0.00,0,0,0,0,*00
$PSTMTS,1,03,146205082.45,-43399.51,1,48,104059,1,13340246.62,11584874.08,19823117.38,-245.25,2508.74,-1305.74,58070.13,8.59,0,0.00,0.00,0,0,0,0,*0E
$PSTMTS,1,01,3055972.30,-46328.61,0,35,103513,1,22944352.57,13414910.81,1958181.61,68.14,358.18,-3154.77,-2799.87,9.84,0,0.00,0.00,0,0,0,0,*05
$PSTMTS,1,68,5579683.26,-46935.09,1,25,55977,0,0.00,0.00,0.00,0.00,0.00,0.00,0.00,0.00,0,0.00,0.00,0,0,0,0,*03
$PSTMTS,1,04,5041893.95,-47524.10,0,32,102097,1,18030947.75,18157428.13,-7925378.28,-970.65,-259.92,-2893.86,-2028.68,16.06,0,0.00,0.00,0,0,0,0,*20
$PSTMTS,1,20,5149188.98,-41098.66,0,38,103577,1,14336480.08,-10877000.58,19353570.27,212.95,2504.50,1247.36,85967.47,17.79,0,0.00,0.00,0,0,0,0,*17
$PSTMTS,1,32,147898214.92,-45666.58,1,46,101928,0,0.00,0.00,0.00,0.00,0.00,0.00,0.00,0.00,0,0.00,0.00,0,0,0,0,*3D
$PSTMTS,1,17,150357655.83,-45142.49,1,38,52028,0,0.00,0.00,0.00,0.00,0.00,0.00,0.00,0.00,0,0.00,0.00,0,0,0,0,*03
$PSTMTS,1,31,5421796.94,-47096.47,0,29,100722,0,0.00,0.00,0.00,0.00,0.00,0.00,0.00,0.00,0,0.00,0.00,0,0,0,0,*36
$PSTMTS,1,69,4689487.19,-48439.74,1,32,89662,0,0.00,0.00,0.00,0.00,0.00,0.00,0.00,0.00,0,0.00,0.00,0,0,0,0,*0C
$PSTMTS,1,79,2483841.94,-41501.06,1,31,20323,0,0.00,0.00,0.00,0.00,0.00,0.00,0.00,0.00,0,0.00,0.00,0,0,0,0,*06
$PSTMTS,1,06,555663.72,-40759.02,0,28,55508,0,0.00,0.00,0.00,0.00,0.00,0.00,0.00,0.00,0,0.00,0.00,0,0,0,0,*3E
$PSTMTS,1,16,556913.02,-41452.86,0,32,100633,1,1228784.30,25592944.19,-6260112.44,-299.76,764.12,3130.15,-47574.26,32.82,0,0.00,0.00,0,0,0,0,*18
$GPRMC,094250.000,A,3205.02223,N,03448.09459,E,1.9,68.0,060215,,A*71
$GNGNS,094250.000,3205.02223,N,03448.09459,E,AN,07,1.2,0266.1,17.1,,*52
$GNGSA,A,3,09,11,03,01,04,20,16,,,,,,2.0,1.2,1.6*20
$GNGSA,A,3,,,,,,,,,,,,,2.0,1.2,1.6*2A
$GNGSA,A,3,,,,,,,,,,,,,2.0,1.2,1.6*2A
$GPGSV,4,1,14,01,54,190,33,03,68,014,48,04,28,167,33,06,09,322,29*7C
$GPGSV,4,2,14,07,10,203,29,08,44,058,,09,33,265,45,11,27,188,36*7B
$GPGSV,4,3,14,16,08,123,33,17,11,276,38,20,21,309,38,23,60,293,31*77
$GPGSV,4,4,14,31,21,041,29,39,51,198,27,,,,,,,,*78
$GLGSV,3,1,10,66,08,089,25,82,18,221,32,76,07,025,,84,08,330,*6E
$GLGSV,3,2,10,83,29,281,,67,44,046,,68,38,330,,78,44,149,33*6B
$GLGSV,3,3,10,77,48,063,,79,06,183,,,,,,,,,*6F
$GPGLL,3205.02223,N,03448.09459,E,094250.000,A,A*5C
$PSTMTS,1,09,28416171.49,-42026.79,1,45,101472,1,24488925.84,-6062073.91,8313419.79,-816.13,723.45,2927.34,-23520.38,13.75,0,0.00,0.00,0,0,0,0,*11
$PSTMTS,1,11,5228082.45,-47349.02,0,36,104082,1,22330686.08,12271983.81,-8274718.41,-1064.78,184.78,-2760.93,-166688.16,16.06,0,0.00,0.00,0,0,0,0,*3B
$PSTMTS,1,23,26922331.41,-43306.97,1,31,86363,0,0.00,0.00,0.00,0.00,0.00,0.00,0.00,0.00,0,0.00,0.00,0,0,0,0,*3E
$PSTMTS,1,03,26296358.11,-43400.37,1,48,105059,1,13340001.47,11587382.67,19821811.47,-245.09,2508.59,-1306.16,58070.13,8.59,0,0.00,0.00,0,0,0,0,*3D
$PSTMTS,1,01,3064786.90,-46330.04,0,33,104512,1,22944420.55,13415268.88,1955026.92,67.83,357.96,-3154.81,-2799.87,9.84,0,0.00,0.00,0,0,0,0,*02
$PSTMTS,1,68,125505452.49,-46936.84,1,25,56977,0,0.00,0.00,0.00,0.00,0.00,0.00,0.00,0.00,0,0.00,0.00,0,0,0,0,*09
$PSTMTS,1,04,5050941.09,-47526.32,0,33,103097,1,18029976.97,18157168.16,-7928271.96,-970.96,-260.05,-2893.69,-2028.68,16.06,0,0.00,0.00,0,0,0,0,*22
$PSTMTS,1,20,5157009.16,-41102.47,0,38,104577,1,14336693.10,-10874496.08,19354817.38,213.08,2504.64,1246.94,85967.47,17.79,0,0.00,0.00,0,0,0,0,*1A
$PSTMTS,1,32,27989922.21,-45667.26,1,46,102927,0,0.00,0.00,0.00,0.00,0.00,0.00,0.00,0.00,0,0.00,0.00,0,0,0,0,*09
$PSTMTS,1,17,30449266.37,-45143.67,1,38,53028,0,0.00,0.00,0.00,0.00,0.00,0.00,0.00,0.00,0,0.00,0.00,0,0,0,0,*3B
$PSTMTS,1,31,5430748.79,-47099.99,0,29,101722,0,0.00,0.00,0.00,0.00,0.00,0.00,0.00,0.00,0,0.00,0.00,0,0,0,0,*3B
$PSTMTS,1,69,124615536.50,-48440.91,1,32,90662,0,0.00,0.00,0.00,0.00,0.00,0.00,0.00,0.00,0,0.00,0.00,0,0,0,0,*01
$PSTMTS,1,79,122408591.13,-41502.55,1,33,21322,0,0.00,0.00,0.00,0.00,0.00,0.00,0.00,0.00,0,0.00,0.00,0,0,0,0,*0E
$PSTMTS,1,07,533613.47,-40402.40,0,29,488,0,0.00,0.00,0.00,0.00,0.00,0.00,0.00,0.00,0,0.00,0.00,0,0,0,0,*3D
$PSTMTS,1,06,563424.85,-40760.28,0,29,56508,0,0.00,0.00,0.00,0.00,0.00,0.00,0.00,0.00,0,0.00,0.00,0,0,0,0,*32
$PSTMTS,1,16,564817.99,-41451.83,0,33,101633,1,1228484.60,25593708.10,-6256982.32,-299.67,763.74,3130.29,-47574.26,32.82,0,0.00,0.00,0,0,0,0,*1D
$GPRMC,094251.000,A,3205.02299,N,03448.09926,E,1.8,85.0,060215,,A*76
$GNGNS,094251.000,3205.02299,N,03448.09926,E,AN,08,1.0,0254.9,17.1,,*53
$GNGSA,A,3,09,11,03,01,04,20,32,16,,,,,1.9,1.0,1.6*29
$GNGSA,A,3,,,,,,,,,,,,,1.9,1.0,1.6*22
$GNGSA,A,3,,,,,,,,,,,,,1.9,1.0,1.6*22
$GPGSV,4,1,14,01,54,190,33,03,68,014,47,04,28,167,32,06,09,322,30*7A
$GPGSV,4,2,14,07,10,203,,08,44,058,,09,33,265,45,11,27,188,35*73
$GPGSV,4,3,14,16,08,123,34,17,11,276,38,20,21,309,37,23,60,293,31*7F
$GPGSV,4,4,14,31,21,041,29,39,51,198,27,,,,,,,,*78
$GLGSV,3,1,10,66,08,089,25,82,18,221,32,76,07,025,,84,08,330,*6E
$GLGSV,3,2,10,83,29,281,,67,44,046,,68,38,330,,78,44,149,35*6D
$GLGSV,3,3,10,77,48,063,,79,06,183,,,,,,,,,*6F
$GPGLL,3205.02299,N,03448.09926,E,094251.000,A,A*59
$PSTMTS,1,09,88382659.96,-42025.57,1,45,102472,1,24488109.59,-6061350.36,8316346.97,-816.41,723.67,2927.17,-23520.38,13.75,0,0.00,0.00,0,0,0,0,*16
$PSTMTS,1,11,5237095.45,-47346.89,0,35,105082,1,22329621.17,12272168.58,-8277479.17,-1065.10,184.75,-2760.75,-166688.16,16.06,0,0.00,0.00,0,0,0,0,*32
$PSTMTS,1,23,2947176.77,-43306.20,0,31,87363,0,0.00,0.00,0.00,0.00,0.00,0.00,0.00,0.00,0,0.00,0.00,0,0,0,0,*03
$PSTMTS,1,03,86263107.61,-43399.83,1,47,106059,1,13339756.47,11589891.11,19820505.13,-244.94,2508.44,-1306.58,58070.13,8.59,0,0.00,0.00,0,0,0,0,*30
$PSTMTS,1,01,3073606.89,-46330.66,0,33,105512,1,22944488.23,13415626.72,1951872.18,67.52,357.74,-3154.85,-2799.87,9.84,0,0.00,0.00,0,0,0,0,*03
$PSTMTS,1,68,5597262.40,-46938.84,1,25,57977,0,0.00,0.00,0.00,0.00,0.00,0.00,0.00,0.00,0,0.00,0.00,0,0,0,0,*02
$PSTMTS,1,04,5059984.93,-47524.56,0,32,104097,1,18029005.88,18156908.05,-7931165.50,-971.28,-260.19,-2893.53,-2028.68,16.06,0,0.00,0.00,0,0,0,0,*2D
$PSTMTS,1,20,5164829.55,-41101.71,0,37,105576,1,14336906.25,-10871991.43,19356064.07,213.21,2504.79,1246.52,85967.47,17.79,0,0.00,0.00,0,0,0,0,*14
$PSTMTS,1,32,87957104.76,-45666.46,1,47,103927,1,5255790.63,23601911.20,11582676.60,-425.80,1411.06,-2626.43,-69029.45,11.83,0,0.00,0.00,0,0,0,0,*1B
$PSTMTS,1,17,90416349.65,-45142.69,1,38,54028,0,0.00,0.00,0.00,0.00,0.00,0.00,0.00,0.00,0,0.00,0.00,0,0,0,0,*38
$PSTMTS,1,31,5439712.51,-47098.33,0,29,102721,0,0.00,0.00,0.00,0.00,0.00,0.00,0.00,0.00,0,0.00,0.00,0,0,0,0,*36
$PSTMTS,1,69,4707622.81,-48438.76,1,32,91662,0,0.00,0.00,0.00,0.00,0.00,0.00,0.00,0.00,0,0.00,0.00,0,0,0,0,*0D
$PSTMTS,1,79,2499369.44,-41502.30,1,35,22322,0,0.00,0.00,0.00,0.00,0.00,0.00,0.00,0.00,0,0.00,0.00,0,0,0,0,*00
$PSTMTS,1,06,571184.90,-40760.26,0,30,57508,0,0.00,0.00,0.00,0.00,0.00,0.00,0.00,0.00,0,0.00,0.00,0,0,0,0,*3D
$PSTMTS,1,16,572726.11,-41448.87,0,34,102633,1,1228184.98,25594471.63,-6253852.05,-299.58,763.36,3130.42,-47574.26,32.82,0,0.00,0.00,0,0,0,0,*19
$GPRMC,094252.000,A,3205.02334,N,03448.10295,E,1.6,74.2,060215,,A*7A
$GNGNS,094252.000,3205.02334,N,03448.10295,E,AN,08,1.0,0245.8,17.1,,*5C
$GNGSA,A,3,09,11,03,01,04,20,32,16,,,,,1.9,1.0,1.6*29
$GNGSA,A,3,,,,,,,,,,,,,1.9,1.0,1.6*22
$GNGSA,A,3,,,,,,,,,,,,,1.9,1.0,1.6*22
$GPGSV,4,1,14,01,54,190,32,03,68,014,46,04,28,167,32,06,09,322,29*72
$GPGSV,4,2,14,07,10,203,,08,44,058,,09,33,265,45,11,27,188,34*72
$GPGSV,4,3,14,16,08,123,34,17,11,276,38,20,21,309,36,23,60,293,31*7E
$GPGSV,4,4,14,31,21,041,29,39,51,198,29,,,,,,,,*76
$GLGSV,3,1,10,66,08,089,25,82,18,221,32,76,07,025,,84,08,330,*6E
$GLGSV,3,2,10,83,29,281,,67,44,046,,68,38,330,,78,44,149,35*6D
$GLGSV,3,3,10,77,48,063,,79,06,183,,,,,,,,,*6F
$GPGLL,3205.02334,N,03448.10295,E,094252.000,A,A*57
$PSTMTS,1,09,148648933.84,-42022.44,1,45,103471,1,24487293.88,-6060627.32,8319271.04,-816.69,723.89,2926.99,-23520.38,13.75,0,0.00,0.00,0,0,0,0,*21
$PSTMTS,1,11,5545893.97,-47342.89,0,34,106082,1,22328557.00,12272353.14,-8280237.00,-1065.42,184.72,-2760.58,-166688.16,16.06,0,0.00,0.00,0,0,0,0,*3D
$PSTMTS,1,23,3255196.28,-43305.26,0,31,88362,0,0.00,0.00,0.00,0.00,0.00,0.00,0.00,0.00,0,0.00,0.00,0,0,0,0,*05
$PSTMTS,1,03,146529648.33,-43396.91,1,46,107059,1,13339511.87,11592396.90,19819199.68,-244.79,2508.29,-1307.00,58070.13,8.59,0,0.00,0.00,0,0,0,0,*02
$PSTMTS,1,01,3382209.00,-46328.98,0,32,106512,1,22944555.53,13415983.98,1948720.55,67.21,357.52,-3154.89,-2799.87,9.84,0,0.00,0.00,0,0,0,0,*09
$PSTMTS,1,68,125822808.90,-46935.31,1,25,58977,0,0.00,0.00,0.00,0.00,0.00,0.00,0.00,0.00,0,0.00,0.00,0,0,0,0,*05
$PSTMTS,1,04,5368808.73,-47522.37,0,32,105096,1,18028035.44,18156648.06,-7934055.97,-971.59,-260.33,-2893.36,-2028.68,16.06,0,0.00,0.00,0,0,0,0,*2D
$PSTMTS,1,20,149372821.64,-41098.52,1,36,106576,1,14337119.33,-10869489.14,19357309.10,213.34,2504.94,1246.10,85967.47,17.79,0,0.00,0.00,0,0,0,0,*10
$PSTMTS,1,32,148224067.88,-45664.22,1,47,104927,1,5255365.34,23603320.66,11580052.75,-425.67,1410.76,-2626.67,-69029.45,11.83,0,0.00,0.00,0,0,0,0,*2F
$PSTMTS,1,17,150683216.18,-45139.12,1,38,55028,0,0.00,0.00,0.00,0.00,0.00,0.00,0.00,0.00,0,0.00,0.00,0,0,0,0,*0B
$PSTMTS,1,31,5748460.06,-47097.61,0,29,103721,0,0.00,0.00,0.00,0.00,0.00,0.00,0.00,0.00,0,0.00,0.00,0,0,0,0,*3E
$PSTMTS,1,69,124933456.35,-48437.17,1,32,92662,0,0.00,0.00,0.00,0.00,0.00,0.00,0.00,0.00,0,0.00,0.00,0,0,0,0,*02
$PSTMTS,1,79,122723911.65,-41500.58,1,35,23322,0,0.00,0.00,0.00,0.00,0.00,0.00,0.00,0.00,0,0.00,0.00,0,0,0,0,*0A
$PSTMTS,1,06,150774951.63,-40757.55,1,29,58507,0,0.00,0.00,0.00,0.00,0.00,0.00,0.00,0.00,0,0.00,0.00,0,0,0,0,*0B
$PSTMTS,1,16,880413.20,-41447.87,0,34,103632,1,1227885.76,25595234.03,-6250724.78,-299.49,762.99,3130.55,-47574.26,32.82,0,0.00,0.00,0,0,0,0,*13
$GPRMC,094253.000,A,3205.02357,N,03448.10550,E,1.5,25.8,060215,,A*7D
$GNGNS,094253.000,3205.02357,N,03448.10550,E,AN,08,1.0,0238.9,17.1,,*5D
$GNGSA,A,3,09,11,03,01,04,20,32,16,,,,,1.9,1.0,1.6*29
$GNGSA,A,3,,,,,,,,,,,,,1.9,1.0,1.6*22
$GNGSA,A,3,,,,,,,,,,,,,1.9,1.0,1.6*22
$GPGSV,4,1,14,01,54,190,33,03,68,014,44,04,28,167,34,06,09,322,29*77
$GPGSV,4,2,14,07,10,203,,08,44,058,,09,33,265,45,11,27,188,30*76
$GPGSV,4,3,14,16,08,123,33,17,11,276,38,20,21,309,35,23,60,293,30*7B
$GPGSV,4,4,14,31,21,041,28,39,51,198,27,,,,,,,,*79
$GLGSV,3,1,10,66,08,089,25,82,18,221,32,76,07,025,,84,08,330,*6E
$GLGSV,3,2,10,83,29,281,,67,44,046,,68,38,330,,78,44,149,36*6E
$GLGSV,3,3,10,77,48,063,,79,06,183,,,,,,,,,*6F
$GPGLL,3205.02357,N,03448.10550,E,094253.000,A,A*5D
$PSTMTS,1,09,28440155.58,-42020.91,1,45,104472,1,24486476.26,-6059902.62,8322200.78,-816.98,724.10,2926.81,-23520.38,13.75,0,0.00,0.00,0,0,0,0,*11
$PSTMTS,1,11,5255111.59,-47344.62,0,30,107082,1,22327490.39,12272538.02,-8283000.18,-1065.74,184.69,-2760.41,-166688.16,16.06,0,0.00,0.00,0,0,0,0,*34
$PSTMTS,1,23,2963654.76,-43304.24,0,30,89363,0,0.00,0.00,0.00,0.00,0.00,0.00,0.00,0.00,0,0.00,0.00,0,0,0,0,*0A
$PSTMTS,1,03,26321138.88,-43396.43,1,44,108059,1,13339266.93,11594907.55,19817891.20,-244.64,2508.14,-1307.43,58070.13,8.59,0,0.00,0.00,0,0,0,0,*30
$PSTMTS,1,01,3091240.68,-46328.96,0,33,107513,1,22944622.65,13416341.74,1945562.57,66.90,357.30,-3154.93,-2799.87,9.84,0,0.00,0.00,0,0,0,0,*08
$PSTMTS,1,68,5614837.32,-46933.80,1,25,59977,0,0.00,0.00,0.00,0.00,0.00,0.00,0.00,0.00,0,0.00,0.00,0,0,0,0,*04
$PSTMTS,1,04,5078069.11,-47522.83,0,34,106097,1,18027062.74,18156387.41,-7936952.06,-971.91,-260.47,-2893.20,-2028.68,16.06,0,0.00,0.00,0,0,0,0,*20
$PSTMTS,1,20,29163881.96,-41098.23,1,35,107577,1,14337332.96,-10866981.69,19358556.21,213.47,2505.09,1245.69,85967.47,17.79,0,0.00,0.00,0,0,0,0,*2E
$PSTMTS,1,32,28015987.52,-45666.32,1,47,105928,1,5254939.32,23604732.64,11577423.41,-425.55,1410.45,-2626.91,-69029.45,11.83,0,0.00,0.00,0,0,0,0,*16
$PSTMTS,1,17,30475044.12,-45137.36,1,38,56028,0,0.00,0.00,0.00,0.00,0.00,0.00,0.00,0.00,0,0.00,0.00,0,0,0,0,*33
$PSTMTS,1,31,5457640.66,-47097.43,0,28,104722,0,0.00,0.00,0.00,0.00,0.00,0.00,0.00,0.00,0,0.00,0.00,0,0,0,0,*30
$PSTMTS,1,69,4725777.46,-48436.02,1,32,93662,0,0.00,0.00,0.00,0.00,0.00,0.00,0.00,0.00,0,0.00,0.00,0,0,0,0,*08
$PSTMTS,1,79,2514901.55,-41503.64,1,36,24323,0,0.00,0.00,0.00,0.00,0.00,0.00,0.00,0.00,0,0.00,0.00,0,0,0,0,*04
$PSTMTS,1,06,30565945.82,-40755.24,1,29,59508,0,0.00,0.00,0.00,0.00,0.00,0.00,0.00,0.00,0,0.00,0.00,0,0,0,0,*3E
$PSTMTS,1,16,588507.47,-41447.71,0,33,104633,1,1227586.02,25595997.57,-6247591.12,-299.40,762.61,3130.69,-47574.26,32.82,0,0.00,0.00,0,0,0,0,*12
$GPRMC,094254.000,A,3205.02379,N,03448.10775,E,0.9,25.6,060215,,A*70
$GNGNS,094254.000,3205.02379,N,03448.10775,E,AN,08,1.0,0232.9,17.1,,*59
$GNGSA,A,3,09,11,03,01,04,20,32,16,,,,,1.9,1.0,1.6*29
$GNGSA,A,3,,,,,,,,,,,,,1.9,1.0,1.6*22
$GNGSA,A,3,,,,,,,,,,,,,1.9,1.0,1.6*22
$GPGSV,4,1,14,01,54,190,32,03,68,014,41,04,28,167,33,06,09,322,29*74
$GPGSV,4,2,14,07,10,203,,08,44,058,,09,33,265,45,11,27,188,31*77
$GPGSV,4,3,14,16,08,123,33,17,11,276,37,20,22,309,35,23,60,293,32*75
$GPGSV,4,4,14,31,21,041,28,39,51,198,30,,,,,,,,*7F
$GLGSV,3,1,10,66,08,089,25,82,18,221,31,76,07,025,,84,08,330,*6D
$GLGSV,3,2,10,83,29,281,,67,44,046,,68,38,330,,78,44,149,35*6D
$GLGSV,3,3,10,77,48,063,,79,06,183,,,,,,,,,*6F
$GPGLL,3205.02379,N,03448.10775,E,094254.000,A,A*53
$PSTMTS,1,09,88406643.72,-42022.17,1,45,105472,1,24485659.16,-6059178.43,8325127.42,-817.26,724.32,2926.63,-23520.38,13.75,0,0.00,0.00,0,0,0,0,*15
$PSTMTS,1,11,5264116.52,-47349.47,0,31,108082,1,22326424.53,12272722.69,-8285760.43,-1066.05,184.65,-2760.24,-166688.16,16.06,0,0.00,0.00,0,0,0,0,*3B
$PSTMTS,1,23,2971891.30,-43306.57,0,32,90363,0,0.00,0.00,0.00,0.00,0.00,0.00,0.00,0.00,0,0.00,0.00,0,0,0,0,*00
$PSTMTS,1,03,86287888.42,-43398.96,1,41,109059,1,13339022.39,11597415.55,19816583.60,-244.48,2507.99,-1307.85,58070.13,8.59,0,0.00,0.00,0,0,0,0,*3B
$PSTMTS,1,01,3100058.50,-46330.68,0,32,108512,1,22944689.40,13416698.92,1942407.70,66.60,357.08,-3154.97,-2799.87,9.84,0,0.00,0.00,0,0,0,0,*09
$PSTMTS,1,68,125540614.63,-46935.66,1,25,60977,0,0.00,0.00,0.00,0.00,0.00,0.00,0.00,0.00,0,0.00,0.00,0,0,0,0,*0A
$PSTMTS,1,04,5087115.50,-47524.81,0,33,107097,1,18026090.70,18156126.89,-7939845.10,-972.23,-260.61,-2893.03,-2028.68,16.06,0,0.00,0.00,0,0,0,0,*28
$PSTMTS,1,20,89130192.75,-41098.82,1,35,108576,1,14337546.83,-10864476.86,19359801.49,213.61,2505.23,1245.27,85967.51,17.70,0,0.00,0.00,0,0,0,0,*2E
$PSTMTS,1,32,87983170.97,-45668.79,1,47,106927,1,5254513.86,23606142.90,11574796.46,-425.43,1410.15,-2627.14,-69029.45,11.83,0,0.00,0.00,0,0,0,0,*15
$PSTMTS,1,17,90442125.31,-45138.79,1,37,57028,0,0.00,0.00,0.00,0.00,0.00,0.00,0.00,0.00,0,0.00,0.00,0,0,0,0,*30
$PSTMTS,1,31,5466619.17,-47098.46,0,28,105722,0,0.00,0.00,0.00,0.00,0.00,0.00,0.00,0.00,0,0.00,0.00,0,0,0,0,*33
$PSTMTS,1,69,124651830.85,-48439.09,1,31,94662,0,0.00,0.00,0.00,0.00,0.00,0.00,0.00,0.00,0,0.00,0.00,0,0,0,0,*0A
$PSTMTS,1,79,122439654.49,-41506.80,1,35,25322,0,0.00,0.00,0.00,0.00,0.00,0.00,0.00,0.00,0,0.00,0.00,0,0,0,0,*07
$PSTMTS,1,06,90532196.61,-40755.56,1,29,60508,0,0.00,0.00,0.00,0.00,0.00,0.00,0.00,0.00,0,0.00,0.00,0,0,0,0,*32
$PSTMTS,1,16,596385.90,-41448.15,0,33,105633,1,1227286.68,25596759.97,-6244460.45,-299.31,762.23,3130.82,-47574.26,32.82,0,0.00,0.00,0,0,0,0,*14
$GPRMC,094255.000,A,3205.02400,N,03448.11053,E,0.5,20.0,060215,,A*75
$GNGNS,094255.000,3205.02400,N,03448.11053,E,AN,08,1.0,0225.7,17.1,,*5B
$GNGSA,A,3,09,11,03,01,04,20,32,16,,,,,1.9,1.0,1.6*29
$GNGSA,A,3,,,,,,,,,,,,,1.9,1.0,1.6*22
$GNGSA,A,3,,,,,,,,,,,,,1.9,1.0,1.6*22
$GPGSV,4,1,14,01,54,190,28,03,68,014,40,04,28,167,34,06,09,322,29*79
$GPGSV,4,2,14,07,10,203,,08,44,058,,09,33,265,44,11,27,188,32*75
$GPGSV,4,3,14,16,08,123,35,17,11,276,36,20,22,309,36,23,60,293,31*72
$GPGSV,4,4,14,31,21,041,29,39,51,198,31,,,,,,,,*7F
$GLGSV,3,1,10,66,08,089,,82,18,221,31,76,07,025,,84,08,330,*6A
$GLGSV,3,2,10,83,29,281,,67,44,046,,68,38,330,,78,44,149,36*6E
$GLGSV,3,3,10,77,48,063,,79,06,183,,,,,,,,,*6F
$GPGLL,3205.02400,N,03448.11053,E,094255.000,A,A*59
$PSTMTS,1,09,148373135.45,-42023.90,1,44,106472,1,24484841.79,-6058454.01,8328053.88,-817.55,724.53,2926.46,-23520.38,13.75,0,0.00,0.00,0,0,0,0,*2D
$PSTMTS,1,11,5273132.85,-47350.03,0,32,109082,1,22325358.35,12272907.33,-8288520.50,-1066.37,184.62,-2760.06,-166688.16,16.06,0,0.00,0.00,0,0,0,0,*3D
$PSTMTS,1,23,2980134.22,-43308.74,0,31,91363,0,0.00,0.00,0.00,0.00,0.00,0.00,0.00,0.00,0,0.00,0.00,0,0,0,0,*06
$PSTMTS,1,03,146254638.95,-43401.66,1,40,110059,1,13338778.01,11599923.39,19815275.57,-244.33,2507.84,-1308.27,58070.13,8.59,0,0.00,0.00,0,0,0,0,*06
$PSTMTS,1,01,3108872.28,-46331.92,0,28,109512,1,22944755.85,13417055.88,1939252.80,66.29,356.86,-3155.01,-2799.87,9.84,0,0.00,0.00,0,0,0,0,*05
$PSTMTS,1,04,5096145.69,-47530.09,0,34,108097,1,18025118.34,18155866.23,-7942737.97,-972.54,-260.74,-2892.87,-2028.68,16.06,0,0.00,0.00,0,0,0,0,*26
$PSTMTS,1,20,149096498.43,-41101.03,1,36,109576,1,14337760.51,-10861971.63,19361046.52,213.74,2505.38,1244.85,85967.51,17.70,0,0.00,0.00,0,0,0,0,*1E
$PSTMTS,1,32,147950354.11,-45671.44,1,47,107927,1,5254088.51,23607552.87,11572169.27,-425.30,1409.85,-2627.38,-69029.45,11.83,0,0.00,0.00,0,0,0,0,*28
$PSTMTS,1,17,150409210.84,-45142.08,1,36,58028,0,0.00,0.00,0.00,0.00,0.00,0.00,0.00,0.00,0,0.00,0.00,0,0,0,0,*0C
$PSTMTS,1,31,5475592.77,-47099.53,0,29,106721,0,0.00,0.00,0.00,0.00,0.00,0.00,0.00,0.00,0,0.00,0.00,0,0,0,0,*33
$PSTMTS,1,69,4743919.26,-48441.91,1,31,95662,0,0.00,0.00,0.00,0.00,0.00,0.00,0.00,0.00,0,0.00,0.00,0,0,0,0,*07
$PSTMTS,1,79,2530442.75,-41509.41,1,36,26322,0,0.00,0.00,0.00,0.00,0.00,0.00,0.00,0.00,0,0.00,0.00,0,0,0,0,*04
$PSTMTS,1,06,150498447.26,-40755.82,1,29,61508,0,0.00,0.00,0.00,0.00,0.00,0.00,0.00,0.00,0,0.00,0.00,0,0,0,0,*0C
$PSTMTS,1,16,604240.50,-41451.75,0,35,106633,1,1226987.42,25597521.99,-6241329.65,-299.22,761.86,3130.96,-47574.26,32.82,0,0.00,0.00,0,0,0,0,*14
$GPRMC,094256.000,A,3205.02443,N,03448.11128,E,1.0,356.2,060215,,A*48
$GNGNS,094256.000,3205.02443,N,03448.11128,E,AN,08,1.0,0223.2,17.1,,*51
$GNGSA,A,3,09,11,03,01,04,20,32,16,,,,,1.9,1.0,1.6*29
$GNGSA,A,3,,,,,,,,,,,,,1.9,1.0,1.6*22
$GNGSA,A,3,,,,,,,,,,,,,1.9,1.0,1.6*22
$GPGSV,4,1,14,01,54,190,28,03,68,014,38,04,28,167,34,06,09,322,29*76
$GPGSV,4,2,14,07,10,203,,08,44,058,,09,33,265,45,11,27,188,33*75
$GPGSV,4,3,14,16,08,123,36,17,11,276,35,20,22,309,35,23,60,293,31*71
$GPGSV,4,4,14,31,21,041,28,39,51,198,28,,,,,,,,*76
$GLGSV,3,1,10,66,08,089,25,82,18,221,30,76,07,025,,84,08,330,*6C
$GLGSV,3,2,10,83,29,281,,67,44,046,,68,38,330,,78,44,149,35*6D
$GLGSV,3,3,10,77,48,063,,79,06,183,,,,,,,,,*6F
$GPGLL,3205.02443,N,03448.11128,E,094256.000,A,A*50
$PSTMTS,1,09,28464145.78,-42023.73,1,45,107472,1,24484024.12,-6057729.39,8330980.17,-817.83,724.75,2926.28,-23520.38,13.75,0,0.00,0.00,0,0,0,0,*1B
$PSTMTS,1,11,5282148.38,-47350.81,0,33,110083,1,22324291.85,12273091.93,-8291280.40,-1066.69,184.59,-2759.89,-166688.16,16.06,0,0.00,0.00,0,0,0,0,*33
$PSTMTS,1,23,2988372.98,-43310.62,0,31,92363,0,0.00,0.00,0.00,0.00,0.00,0.00,0.00,0.00,0,0.00,0.00,0,0,0,0,*02
$PSTMTS,1,03,26345915.41,-43401.91,1,38,111059,1,13338533.77,11602431.09,19813967.13,-244.18,2507.69,-1308.69,58070.13,8.59,0,0.00,0.00,0,0,0,0,*31
$PSTMTS,1,01,3117695.89,-46333.98,0,28,110513,1,22944821.98,13417412.61,1936097.85,65.98,356.64,-3155.06,-2799.87,9.84,0,0.00,0.00,0,0,0,0,*05
$PSTMTS,1,68,125558213.51,-46936.52,1,25,62977,0,0.00,0.00,0.00,0.00,0.00,0.00,0.00,0.00,0,0.00,0.00,0,0,0,0,*07
$PSTMTS,1,04,5105186.00,-47530.34,0,34,109097,1,18024145.67,18155605.43,-7945630.68,-972.86,-260.88,-2892.71,-2028.68,16.06,0,0.00,0.00,0,0,0,0,*24
$PSTMTS,1,20,29187328.05,-41099.09,1,35,110577,1,14337974.32,-10859466.25,19362291.12,213.87,2505.52,1244.43,85967.51,17.70,0,0.00,0.00,0,0,0,0,*2F
$PSTMTS,1,32,28042062.04,-45672.18,1,47,108928,1,5253663.29,23608962.53,11569541.84,-425.18,1409.55,-2627.62,-69029.45,11.83,0,0.00,0.00,0,0,0,0,*15
$PSTMTS,1,17,30500818.48,-45141.53,1,35,59029,0,0.00,0.00,0.00,0.00,0.00,0.00,0.00,0.00,0,0.00,0.00,0,0,0,0,*3F
$PSTMTS,1,31,5484556.57,-47101.08,0,28,107722,0,0.00,0.00,0.00,0.00,0.00,0.00,0.00,0.00,0,0.00,0.00,0,0,0,0,*3A
$PSTMTS,1,69,124669988.73,-48442.13,1,30,96662,0,0.00,0.00,0.00,0.00,0.00,0.00,0.00,0.00,0,0.00,0.00,0,0,0,0,*0E
$PSTMTS,1,79,122455188.30,-41510.62,1,35,27323,0,0.00,0.00,0.00,0.00,0.00,0.00,0.00,0.00,0,0.00,0.00,0,0,0,0,*0D
$PSTMTS,1,06,30589220.05,-40755.99,1,29,62508,0,0.00,0.00,0.00,0.00,0.00,0.00,0.00,0.00,0,0.00,0.00,0,0,0,0,*35
$PSTMTS,1,16,612101.07,-41453.15,0,36,107633,1,1226688.26,25598283.64,-6238198.71,-299.13,761.48,3131.09,-47574.26,32.82,0,0.00,0.00,0,0,0,0,*15
$GPRMC,094257.000,A,3205.02515,N,03448.11213,E,1.5,351.1,060215,,A*41
$GNGNS,094257.000,3205.02515,N,03448.11213,E,AN,08,1.0,0220.4,17.1,,*5C
$GNGSA,A,3,09,11,03,01,04,20,32,16,,,,,1.9,1.0,1.6*29
$GNGSA,A,3,,,,,,,,,,,,,1.9,1.0,1.6*22
$GNGSA,A,3,,,,,,,,,,,,,1.9,1.0,1.6*22
$GPGSV,4,1,14,01,54,190,29,03,68,014,37,04,28,167,34,06,09,322,29*78
$GPGSV,4,2,14,07,10,203,,08,44,058,,09,33,265,44,11,27,188,33*74
$GPGSV,4,3,14,16,08,123,37,17,11,276,32,20,22,309,35,23,60,293,31*77
$GPGSV,4,4,14,31,21,041,27,39,51,198,27,,,,,,,,*76
$GLGSV,3,1,10,66,08,089,25,82,18,221,31,76,07,025,,84,08,330,*6D
$GLGSV,3,2,10,83,29,281,,67,44,046,,68,38,330,,78,44,149,35*6D
$GLGSV,3,3,10,77,48,063,,79,06,183,,,,,,,,,*6F
$GPGLL,3205.02515,N,03448.11213,E,094257.000,A,A*58
$PSTMTS,1,09,88430633.77,-42020.71,1,44,108472,1,24483206.17,-6057004.54,8333906.27,-818.12,724.97,2926.10,-23520.38,13.75,0,0.00,0.00,0,0,0,0,*1B
$PSTMTS,1,11,5291155.25,-47348.13,0,33,111082,1,22323225.04,12273276.50,-8294040.12,-1067.00,184.55,-2759.72,-166688.16,16.06,0,0.00,0.00,0,0,0,0,*3C
$PSTMTS,1,23,2996609.86,-43306.88,0,31,93363,0,0.00,0.00,0.00,0.00,0.00,0.00,0.00,0.00,0,0.00,0.00,0,0,0,0,*09
$PSTMTS,1,03,2370772.93,-43397.69,0,37,112059,1,13338289.69,11604938.64,19812658.26,-244.02,2507.54,-1309.11,58070.13,8.59,0,0.00,0.00,0,0,0,0,*0C
$PSTMTS,1,01,3126512.96,-46332.79,0,29,111513,1,22944887.80,13417769.13,1932942.86,65.67,356.41,-3155.10,-2799.87,9.84,0,0.00,0.00,0,0,0,0,*02
$PSTMTS,1,68,5650022.87,-46934.50,1,25,63977,0,0.00,0.00,0.00,0.00,0.00,0.00,0.00,0.00,0,0.00,0.00,0,0,0,0,*05
$PSTMTS,1,04,5114220.83,-47527.95,0,34,110097,1,18023172.68,18155344.49,-7948523.22,-973.17,-261.02,-2892.54,-2028.68,16.06,0,0.00,0.00,0,0,0,0,*2C
$PSTMTS,1,20,89153630.57,-41095.46,1,35,111577,1,14338188.27,-10856960.73,19363535.31,214.00,2505.66,1244.01,85967.51,17.70,0,0.00,0.00,0,0,0,0,*26
$PSTMTS,1,32,88009242.29,-45669.71,1,48,109927,1,5253238.20,23610371.89,11566914.17,-425.05,1409.25,-2627.86,-69029.45,11.83,0,0.00,0.00,0,0,0,0,*16
$PSTMTS,1,17,530171.00,-45139.56,0,32,60028,0,0.00,0.00,0.00,0.00,0.00,0.00,0.00,0.00,0,0.00,0.00,0,0,0,0,*32
$PSTMTS,1,31,5493517.70,-47099.94,0,27,108722,0,0.00,0.00,0.00,0.00,0.00,0.00,0.00,0.00,0,0.00,0.00,0,0,0,0,*39
$PSTMTS,1,69,4762057.44,-48440.76,1,31,97662,0,0.00,0.00,0.00,0.00,0.00,0.00,0.00,0.00,0,0.00,0.00,0,0,0,0,*09
$PSTMTS,1,79,2545974.37,-41508.32,1,35,28323,0,0.00,0.00,0.00,0.00,0.00,0.00,0.00,0.00,0,0.00,0.00,0,0,0,0,*01
$PSTMTS,1,06,90555467.91,-40756.35,1,29,63508,0,0.00,0.00,0.00,0.00,0.00,0.00,0.00,0.00,0,0.00,0.00,0,0,0,0,*32
$PSTMTS,1,16,619966.90,-41450.86,0,37,108633,1,1226389.18,25599044.91,-6235067.64,-299.04,761.10,3131.22,-47574.26,32.82,0,0.00,0.00,0,0,0,0,*1F
$GPRMC,094258.000,A,3205.02570,N,03448.11284,E,1.2,354.5,060215,,A*45
$GNGNS,094258.000,3205.02570,N,03448.11284,E,AN,08,1.0,0218.2,17.1,,*53
$GNGSA,A,3,09,11,03,01,04,20,32,16,,,,,1.9,1.0,1.6*29
$GNGSA,A,3,,,,,,,,,,,,,1.9,1.0,1.6*22
$GNGSA,A,3,,,,,,,,,,,,,1.9,1.0,1.6*22
$GPGSV,4,1,14,01,54,190,31,03,68,014,37,04,28,167,34,06,09,322,28*70
$GPGSV,4,2,14,07,10,203,,08,44,058,,09,33,265,44,11,27,188,32*75
$GPGSV,4,3,14,16,08,123,37,17,11,276,33,20,22,309,36,23,60,293,31*75
$GPGSV,4,4,14,31,21,041,28,39,51,198,32,,,,,,,,*7D
$GLGSV,3,1,10,66,08,089,25,82,18,221,32,76,07,025,,84,08,330,*6E
$GLGSV,3,2,10,83,29,281,,67,44,046,,68,38,330,,78,44,149,35*6D
$GLGSV,3,3,10,77,48,063,21,79,06,183,,,,,,,,,*6C
$GPGLL,3205.02570,N,03448.11284,E,094258.000,A,A*5A
$PSTMTS,1,09,148397120.02,-42020.29,1,44,109472,1,24482387.94,-6056279.48,8336832.20,-818.40,725.18,2925.92,-23520.38,13.75,0,0.00,0.00,0,0,0,0,*2D
$PSTMTS,1,11,5300161.54,-47346.10,0,32,112082,1,22322157.90,12273461.04,-8296799.68,-1067.32,184.52,-2759.55,-166688.16,16.06,0,0.00,0.00,0,0,0,0,*3F
$PSTMTS,1,23,3004842.33,-43306.96,0,31,94363,0,0.00,0.00,0.00,0.00,0.00,0.00,0.00,0.00,0,0.00,0.00,0,0,0,0,*0D
$PSTMTS,1,03,2379032.32,-43398.35,0,37,113059,1,13338045.76,11607446.04,19811348.98,-243.87,2507.39,-1309.54,58070.13,8.59,0,0.00,0.00,0,0,0,0,*05
$PSTMTS,1,01,3135322.03,-46332.10,0,31,112512,1,22944953.32,13418125.42,1929787.83,65.36,356.19,-3155.14,-2799.87,9.84,0,0.00,0.00,0,0,0,0,*0C
$PSTMTS,1,68,125575790.99,-46930.67,1,25,64977,0,0.00,0.00,0.00,0.00,0.00,0.00,0.00,0.00,0,0.00,0.00,0,0,0,0,*04
$PSTMTS,1,04,149023646.99,-47524.55,1,34,111097,1,18022199.37,18155083.41,-7951415.60,-973.49,-261.16,-2892.38,-2028.68,16.06,0,0.00,0.00,0,0,0,0,*20
$PSTMTS,1,20,5219555.52,-41094.02,0,36,112576,1,14338402.35,-10854455.07,19364779.07,214.14,2505.81,1243.59,85967.51,17.70,0,0.00,0.00,0,0,0,0,*1B
$PSTMTS,1,32,147976426.84,-45668.83,1,47,110927,1,5252813.22,23611780.95,11564286.27,-424.93,1408.95,-2628.10,-69029.45,11.83,0,0.00,0.00,0,0,0,0,*2E
$PSTMTS,1,17,538775.31,-45137.77,0,33,61028,0,0.00,0.00,0.00,0.00,0.00,0.00,0.00,0.00,0,0.00,0.00,0,0,0,0,*37
$PSTMTS,1,31,5502480.29,-47100.02,0,28,109722,0,0.00,0.00,0.00,0.00,0.00,0.00,0.00,0.00,0,0.00,0.00,0,0,0,0,*33
$PSTMTS,1,69,124688089.96,-48440.36,1,32,98662,0,0.00,0.00,0.00,0.00,0.00,0.00,0.00,0.00,0,0.00,0.00,0,0,0,0,*0B
$PSTMTS,1,84,2461957.03,-45505.55,0,21,906,0,0.00,0.00,0.00,0.00,0.00,0.00,0.00,0.00,0,0.00,0.00,0,0,0,0,*09
$PSTMTS,1,79,122470729.17,-41508.06,1,35,29322,0,0.00,0.00,0.00,0.00,0.00,0.00,0.00,0.00,0,0.00,0.00,0,0,0,0,*06
$PSTMTS,1,06,625476.69,-40753.89,0,28,64508,0,0.00,0.00,0.00,0.00,0.00,0.00,0.00,0.00,0,0.00,0.00,0,0,0,0,*3D
$PSTMTS,1,16,627851.23,-41449.62,0,37,109633,1,1226090.19,25599805.81,-6231936.44,-298.95,760.73,3131.36,-47574.26,32.82,0,0.00,0.00,0,0,0,0,*19
$GPRMC,094259.000,A,3205.02683,N,03448.11330,E,1.7,359.3,060215,,A*4B
$GNGNS,094259.000,3205.02683,N,03448.11330,E,AN,08,1.0,0215.4,17.1,,*58
$GNGSA,A,3,09,11,03,01,04,20,32,16,,,,,1.9,1.0,1.6*29
$GNGSA,A,3,,,,,,,,,,,,,1.9,1.0,1.6*22
$GNGSA,A,3,,,,,,,,,,,,,1.9,1.0,1.6*22
$GPGSV,4,1,14,01,54,190,33,03,68,014,37,04,28,167,34,06,09,322,30*7B
$GPGSV,4,2,14,07,10,203,,08,44,058,,09,33,265,44,11,27,188,32*75
$GPGSV,4,3,14,16,08,123,38,17,11,276,32,20,22,309,37,23,60,293,32*79
$GPGSV,4,4,14,31,21,041,28,39,51,198,30,,,,,,,,*7F
$GLGSV,3,1,10,66,08,089,26,82,18,221,28,76,07,025,,84,08,330,*66
$GLGSV,3,2,10,83,29,281,,67,44,046,,68,38,330,,78,44,149,35*6D
$GLGSV,3,3,10,77,48,063,23,79,06,183,,,,,,,,,*6E
$GPGLL,3205.02683,N,03448.11330,E,094259.000,A,A*5A
$PSTMTS,1,09,28488135.30,-42022.45,1,44,110472,1,24481569.43,-6055554.21,8339757.96,-818.69,725.40,2925.74,-23520.38,13.75,0,0.00,0.00,0,0,0,0,*1D
$PSTMTS,1,11,5309176.95,-47347.71,0,32,113082,1,22321090.46,12273645.55,-8299559.06,-1067.64,184.49,-2759.37,-166688.16,16.06,0,0.00,0.00,0,0,0,0,*3C
$PSTMTS,1,23,3013073.10,-43307.61,0,32,95363,0,0.00,0.00,0.00,0.00,0.00,0.00,0.00,0.00,0,0.00,0.00,0,0,0,0,*0B
